3*1C
$PGRMM,WGS 84*06
$GPRTE,1,1,c,*37
$GPRMC,150832,A,5136.3983,N,00147.7632,W,0.0,164.2,270207,3.3,W,A*15
$GPRMB,A,,,,,,,,,,,,A,A*0B
$GPGGA,150832,5136.3983,N,00147.7632,W,1,08,1.2,144.4,M,49.1,M,,*5D
$GPGSA,A,3,01,,11,,13,17,20,23,25,31,,,2.2,1.2,1.8*3B
$GPGSV,3,1,12,01,36,051,38,04,21,299,00,11,40,139,45,12,04,348,00*70
$GPGSV,3,2,12,13,17,195,46,17,47,267,46,20,79,063,51,23,46,176,40*7E
$GPGSV,3,3,12,25,20,108,36,31,20,063,44,37,00,000,38,41,00,000,00*7C
$GPGLL,5136.3983,N,00147.7632,W,150832,A,A*5A
$GPBOD,,T,,M,,*47
$PGRME,5.4,M,8.4,M,10.1,M*13
$PGRMZ,474,f,3*1C
$PGRMM,WGS 84*06
$GPRTE,1,1,c,*37
$GPRMC,150834,A,5136.3983,N,00147.7632,W,0.0,164.2,270207,3.3,W,A*13
$GPRMB,A,,,,,,,,,,,,A,A*0B
$GPGGA,150834,5136.3983,N,00147.7632,W,1,08,1.2,144.3,M,49.1,M,,*5C
$GPGSA,A,3,01,,11,,13,17,20,23,25,31,,,2.2,1.2,1.8*3B
$GPGSV,3,1,12,01,36,051,38,04,22,299,00,11,40,139,45,12,04,348,00*73
$GPGSV,3,2,12,13,17,195,45,17,47,267,46,20,79,063,51,23,46,176,40*7D
$GPGSV,3,3,12,25,20,108,35,31,20,063,44,37,00,000,38,41,00,000,00*7F
$GPGLL,5136.3983,N,00147.7632,W,150834,A,A*5C
$GPBOD,,T,,M,,*47
$PGRME,5.5,M,8.5,M,10.1,M*13
$PGRMZ,473,f,3*1B
$PGRMM,WGS 84*06
$GPRTE,1,1,c,*37
$GPRMC,150836,A,5136.3984,N,00147.7633,W,0.0,164.2,270207,3.3,W,A*17
$GPRMB,A,,,,,,,,,,,,A,A*0B
$GPGGA,150836,5136.3984,N,00147.7633,W,1,08,1.2,144.3,M,49.1,M,,*58
$GPGSA,A,3,01,,11,,13,17,20,23,25,31,,,2.2,1.2,1.8*3B
$GPGSV,3,1,12,01,36,051,39,04,22,299,00,11,40,139,45,12,04,348,00*72
$GPGSV,3,2,12,13,17,195,45,17,47,267,45,20,79,063,51,23,46,176,41*7F
$GPGSV,3,3,12,25,20,108,35,31,20,063,44,37,00,000,38,41,00,000,00*7F
$GPGLL,5136.3984,N,00147.7633,W,150836,A,A*58
$GPBOD,,T,,M,,*47
$PGRME,5.4,M,8.5,M,10.1,M*12
$PGRMZ,473,f,3*1B
$PGRMM,WGS 84*06
$GPRTE,1,1,c,*37
$GPRMC,150838,A,5136.3985,N,00147.7633,W,0.0,164.2,270207,3.3,W,A*18
$GPRMB,A,,,,,,,,,,,,A,A*0B
$GPGGA,150838,5136.3985,N,00147.7633,W,1,08,1.2,144.2,M,49.1,M,,*56
$GPGSA,A,3,01,,11,,13,17,20,23,25,31,,,2.2,1.2,1.8*3B
$GPGSV,3,1,12,01,36,051,38,04,22,299,00,11,40,139,44,12,04,348,00*72
$GPGSV,3,2,12,13,17,195,45,17,47,267,45,20,79,063,51,23,46,176,41*7F
$GPGSV,3,3,12,25,20,108,35,31,20,063,44,37,00,000,39,41,00,000,00*7E
$GPGLL,5136.3985,N,00147.7633,W,150838,A,A*57
$GPBOD,,T,,M,,*47
$PGRME,5.5,M,8.5,M,10.1,M*13
$PGRMZ,473,f,3*1B
$PGRMM,WGS 84*06
$GPRTE,1,1,c,*37
$GPRMC,150840,A,5136.3986,N,00147.7634,W,0.0,164.2,270207,3.3,W,A*13
$GPRMB,A,,,,,,,,,,,,A,A*0B
$GPGGA,150840,5136.3986,N,00147.7634,W,1,08,1.2,144.1,M,49.1,M,,*5E
$GPGSA,A,3,01,,11,,13,17,20,23,25,31,,,2.2,1.2,1.8*3B
$GPGSV,3,1,12,01,36,051,38,04,22,299,00,11,40,139,44,12,04,348,00*72
$GPGSV,3,2,12,13,17,195,45,17,47,267,45,20,79,063,50,23,46,176,41*7E
$GPGSV,3,3,12,25,20,108,37,31,20,063,44,37,00,000,39,41,00,000,00*7C
$GPGLL,5136.3986,N,00147.7634,W,150840,A,A*5C
$GPBOD,,T,,M,,*47
$PGRME,5.5,M,8.5,M,10.1,M*13
$PGRMZ,473,f,3*1B
$PGRMM,WGS 84*06
$GPRTE,1,1,c,*37
$GPRMC,150842,A,5136.3986,N,00147.7635,W,0.0,164.2,270207,3.3,W,A*10
$GPRMB,A,,,,,,,,,,,,A,A*0B
$GPGGA,150842,5136.3986,N,00147.7635,W,1,08,1.2,144.0,M,49.1,M,,*5C
$GPGSA,A,3,01,,11,,13,17,20,23,25,31,,,2.2,1.2,1.8*3B
$GPGSV,3,1,12,01,36,051,38,04,22,299,00,11,40,139,44,12,04,348,00*72
$GPGSV,3,2,12,13,17,195,45,17,47,267,45,20,79,063,50,23,46,176,41*7E
$GPGSV,3,3,12,25,20,108,37,31,20,063,44,37,00,000,39,41,00,000,00*7C
$GPGLL,5136.3986,N,00147.7635,W,150842,A,A*5F
$GPBOD,,T,,M,,*47
$PGRME,5.5,M,8.5,M,10.1,M*13
$PGRMZ,473,f,3*1B
$PGRMM,WGS 84*06
$GPRTE,1,1,c,*37
$GPRMC,150844,A,5136.3987,N,00147.7635,W,0.0,164.2,270207,3.3,W,A*17
$GPRMB,A,,,,,,,,,,,,A,A*0B
$GPGGA,150844,5136.3987,N,00147.7635,W,1,08,1.2,143.9,M,49.1,M,,*55
$GPGSA,A,3,01,,11,,13,17,20,23,25,31,,,2.2,1.2,1.8*3B
$GPGSV,3,1,12,01,36,051,39,04,22,299,00,11,40,139,44,12,04,348,00*73
$GPGSV,3,2,12,13,17,195,45,17,47,267,45,20,79,063,50,23,46,176,42*7D
$GPGSV,3,3,12,25,20,108,37,31,20,063,44,37,00,000,40,41,00,000,00*72
$GPGLL,5136.3987,N,00147.7635,W,150844,A,A*58
$GPBOD,,T,,M,,*47
$PGRME,5.5,M,8.5,M,10.1,M*13
$PGRMZ,472,f,3*1A
$PGRMM,WGS 84*06
$GPRTE,1,1,c,*37
$GPRMC,150846,A,5136.3988,N,00147.7636,W,0.0,164.2,270207,3.3,W,A*19
$GPRMB,A,,,,,,,,,,,,A,A*0B
$GPGGA,150846,5136.3988,N,00147.7636,W,1,08,1.2,143.7,M,49.1,M,,*55
$GPGSA,A,3,01,,11,,13,17,20,23,25,31,,,2.2,1.2,1.8*3B
$GPGSV,3,1,12,01,36,051,39,04,22,299,00,11,40,139,44,12,04,348,00*73
$GPGSV,3,2,12,13,17,195,45,17,47,267,45,20,79,063,50,23,46,176,42*7D
$GPGSV,3,3,12,25,20,108,37,31,20,063,44,37,00,000,40,41,00,000,00*72
$GPGLL,5136.3988,N,00147.7636,W,150846,A,A*56
$GPBOD,,T,,M,,*47
$PGRME,5.5,M,8.5,M,10.1,M*13
$PGRMZ,471,f,3*19
$PGRMM,WGS 84*06
$GPRTE,1,1,c,*37
$GPRMC,150848,A,5136.3989,N,00147.7637,W,0.0,164.2,270207,3.3,W,A*17
$GPRMB,A,,,,,,,,,,,,A,A*0B
$GPGGA,150848,5136.3989,N,00147.7637,W,1,08,1.2,143.5,M,49.1,M,,*59
$GPGSA,A,3,01,,11,,13,17,20,23,25,31,,,2.2,1.2,1.8*3B
$GPGSV,3,1,12,01,36,051,38,04,22,299,00,11,40,139,44,12,04,348,00*72
$GPGSV,3,2,12,13,17,195,45,17,47,267,45,20,79,063,50,23,46,176,42*7D
$GPGSV,3,3,12,25,20,108,37,31,20,063,44,37,00,000,39,41,00,000,00*7C
$GPGLL,5136.3989,N,00147.7637,W,150848,A,A*58
$GPBOD,,T,,M,,*47
$PGRME,5.5,M,8.5,M,10.1,M*13
$PGRMZ,471,f,3*19
$PGRMM,WGS 84*06
$GPRTE,1,1,c,*37
$GPRMC,150850,A,5136.3990,N,00147.7638,W,0.0,164.2,270207,3.3,W,A*19
$GPRMB,A,,,,,,,,,,,,A,A*0B
$GPGGA,150850,5136.3990,N,00147.7638,W,1,08,1.2,143.3,M,49.1,M,,*51
$GPGSA,A,3,01,,11,,13,17,20,23,25,31,,,2.2,1.2,1.8*3B
$GPGSV,3,1,12,01,36,051,39,04,22,299,00,11,40,139,45,12,04,348,00*72
$GPGSV,3,2,12,13,17,195,45,17,47,267,45,20,79,063,50,23,46,176,42*7D
$GPGSV,3,3,12,25,20,108,37,31,20,063,44,37,00,000,39,41,00,000,00*7C
$GPGLL,5136.3990,N,00147.7638,W,150850,A,A*56
$GPBOD,,T,,M,,*47
$PGRME,5.5,M,8.5,M,10.1,M*13
$PGRMZ,470,f,3*18
$PGRMM,WGS 84*06
$GPRTE,1,1,c,*37
$GPRMC,150852,A,5136.3991,N,00147.7639,W,0.0,164.2,270207,3.3,W,A*1B
$GPRMB,A,,,,,,,,,,,,A,A*0B
$GPGGA,150852,5136.3991,N,00147.7639,W,1,08,1.2,143.2,M,49.1,M,,*52
$GPGSA,A,3,01,,11,,13,17,20,23,25,31,,,2.2,1.2,1.8*3B
$GPGSV,3,1,12,01,36,051,39,04,22,299,00,11,40,139,44,12,04,348,00*73
$GPGSV,3,2,12,13,17,195,46,17,47,267,44,20,79,063,50,23,46,176,41*7C
$GPGSV,3,3,12,25,20,108,37,31,20,063,43,37,00,000,39,41,00,000,00*7B
$GPGLL,5136.3991,N,00147.7639,W,150852,A,A*54
$GPBOD,,T,,M,,*47
$PGRME,5.5,M,8.5,M,10.1,M*13
$PGRMZ,470,f,3*18
$PGRMM,WGS 84*06
$GPRTE,1,1,c,*37
$GPRMC,150854,A,5136.3991,N,00147.7640,W,0.0,164.2,270207,3.3,W,A*13
$GPRMB,A,,,,,,,,,,,,A,A*0B
$GPGGA,150854,5136.3991,N,00147.7640,W,1,08,1.2,143.2,M,49.1,M,,*5A
$GPGSA,A,3,01,,11,,13,17,20,23,25,31,,,2.2,1.2,1.8*3B
$GPGSV,3,1,12,01,36,051,39,04,22,299,00,11,40,139,44,12,04,348,00*73
$GPGSV,3,2,12,13,17,195,46,17,47,267,44,20,79,063,50,23,46,176,40*7D
$GPGSV,3,3,12,25,20,108,38,31,20,063,43,37,00,000,39,41,00,000,00*74
$GPGLL,5136.3991,N,00147.7640,W,150854,A,A*5C
$GPBOD,,T,,M,,*47
$PGRME,5.5,M,8.5,M,10.1,M*13
$PGRMZ,470,f,3*18
$PGRMM,WGS 84*06
$GPRTE,1,1,c,*37
$GPRMC,150856,A,5136.3991,N,00147.7642,W,0.0,164.2,270207,3.3,W,A*13
$GPRMB,A,,,,,,,,,,,,A,A*0B
$GPGGA,150856,5136.3991,N,00147.7642,W,1,08,1.3,143.1,M,49.1,M,,*58
$GPGSA,A,3,01,,11,,13,17,20,23,25,31,,,2.3,1.3,1.9*3A
$GPGSV,3,1,12,01,36,051,39,04,22,299,00,11,40,139,44,12,04,348,00*73
$GPGSV,3,2,12,13,17,195,46,17,47,267,44,20,79,063,50,23,46,176,40*7D
$GPGSV,3,3,12,25,20,108,38,31,20,063,43,37,00,000,39,41,00,000,00*74
$GPGLL,5136.3991,N,00147.7642,W,150856,A,A*5C
$GPBOD,,T,,M,,*47
$PGRME,5.5,M,8.5,M,10.1,M*13
$PGRMZ,469,f,3*10
$PGRMM,WGS 84*06
$GPRTE,1,1,c,*37
$GPRMC,150858,A,5136.3991,N,00147.7643,W,0.0,164.2,270207,3.3,W,A*1C
$GPRMB,A,,,,,,,,,,,,A,A*0B
$GPGGA,150858,5136.3991,N,00147.7643,W,1,08,1.3,143.0,M,49.1,M,,*56
$GPGSA,A,3,01,,11,,13,17,20,23,25,31,,,2.3,1.3,1.9*3A
$GPGSV,3,1,12,01,36,051,39,04,22,299,00,11,40,139,44,12,04,348,00*73
$GPGSV,3,2,12,13,17,195,46,17,47,267,44,20,79,063,50,23,46,176,39*73
$GPGSV,3,3,12,25,20,108,38,31,20,063,43,37,00,000,39,41,00,000,00*74
$GPGLL,5136.3991,N,00147.7643,W,150858,A,A*53
$GPBOD,,T,,M,,*47
$PGRME,5.5,M,8.5,M,10.1,M*13
$PGRMZ,469,f,3*10
$PGRMM,WGS 84*06
$GPRTE,1,1,c,*37
$GPRMC,150900,A,5136.3991,N,00147.7645,W,0.0,164.2,270207,3.3,W,A*16
$GPRMB,A,,,,,,,,,,,,A,A*0B
$GPGGA,150900,5136.3991,N,00147.7645,W,1,08,1.3,143.1,M,49.1,M,,*5D
$GPGSA,A,3,01,,11,,13,17,20,23,25,31,,,2.3,1.3,1.9*3A
$GPGSV,3,1,12,01,36,051,39,04,22,299,00,11,39,139,43,12,04,348,00*7A
$GPGSV,3,2,12,13,17,195,46,17,47,267,44,20,79,063,50,23,46,176,38*72
$GPGSV,3,3,12,25,20,108,38,31,20,063,43,37,00,000,39,41,00,000,00*74
$GPGLL,5136.3991,N,00147.7645,W,150900,A,A*59
$GPBOD,,T,,M,,*47
$PGRME,5.5,M,8.5,M,10.1,M*13
$PGRMZ,469,f,3*10
$PGRMM,WGS 84*06
$GPRTE,1,1,c,*37
$GPRMC,150902,A,5136.3990,N,00147.7646,W,0.0,164.2,270207,3.3,W,A*16
$GPRMB,A,,,,,,,,,,,,A,A*0B
$GPGGA,150902,5136.3990,N,00147.7646,W,1,08,1.4,143.2,M,49.1,M,,*59
$GPGSA,A,3,01,,11,,13,17,20,23,25,31,,,2.4,1.4,1.9*3A
$GPGSV,3,1,12,01,36,051,39,04,22,299,00,11,39,139,43,12,04,348,00*7A
$GPGSV,3,2,12,13,17,195,46,17,47,267,44,20,79,063,50,23,46,176,38*72
$GPGSV,3,3,12,25,20,108,37,31,20,063,43,37,00,000,40,41,00,000,00*75
$GPGLL,5136.3990,N,00147.7646,W,150902,A,A*59
$GPBOD,,T,,M,,*47
$PGRME,5.5,M,8.5,M,10.1,M*13
$PGRMZ,470,f,3*18
$PGRMM,WGS 84*06
$GPRTE,1,1,c,*37
$GPRMC,150904,A,5136.3989,N,00147.7647,W,0.0,164.2,270207,3.3,W,A*19
$GPRMB,A,,,,,,,,,,,,A,A*0B
$GPGGA,150904,5136.3989,N,00147.7647,W,1,08,1.4,143.3,M,49.1,M,,*57
$GPGSA,A,3,01,,11,,13,17,20,23,25,31,,,2.4,1.4,1.9*3A
$GPGSV,3,1,12,01,36,051,39,04,22,299,00,11,39,139,43,12,04,348,00*7A
$GPGSV,3,2,12,13,17,195,46,17,47,267,44,20,79,063,50,23,46,176,37*7D
$GPGSV,3,3,12,25,20,108,37,31,20,063,43,37,00,000,39,41,00,000,00*7B
$GPGLL,5136.3989,N,00147.7647,W,150904,A,A*56
$GPBOD,,T,,M,,*47
$PGRME,5.5,M,8.5,M,10.1,M*13
$PGRMZ,470,f,3*18
$PGRMM,WGS 84*06
$GPRTE,1,1,c,*37
$GPRMC,150906,A,5136.3987,N,00147.7647,W,0.0,164.2,270207,3.3,W,A*15
$GPRMB,A,,,,,,,,,,,,A,A*0B
$GPGGA,150906,5136.3987,N,00147.7647,W,1,08,1.4,143.6,M,49.1,M,,*5E
$GPGSA,A,3,01,,11,,13,17,20,23,25,31,,,2.4,1.4,2.0*30
$GPGSV,3,1,12,01,36,051,39,04,22,299,00,11,39,139,43,12,04,348,00*7A
$GPGSV,3,2,12,13,17,195,46,17,47,267,44,20,79,063,50,23,46,176,37*7D
$GPGSV,3,3,12,25,20,108,38,31,20,063,43,37,00,000,39,41,00,000,00*74
$GPGLL,5136.3987,N,00147.7647,W,150906,A,A*5A
$GPBOD,,T,,M,,*47
$PGRME,5.5,M,8.5,M,10.1,M*13
$PGRMZ,471,f,3*19
$PGRMM,WGS 84*06
$GPRTE,1,1,c,*37
$GPRMC,150908,A,5136.3986,N,00147.7648,W,0.0,164.2,270207,3.3,W,A*15
$GPRMB,A,,,,,,,,,,,,A,A*0B
$GPGGA,150908,5136.3986,N,00147.7648,W,1,08,1.3,144.0,M,49.1,M,,*58
$GPGSA,A,3,01,,11,,13,17,20,23,25,31,,,2.3,1.3,1.9*3A
$GPGSV,3,1,12,01,36,051,39,04,22,299,00,11,39,139,43,12,04,348,00*7A
$GPGSV,3,2,12,13,18,195,46,17,47,267,44,20,79,063,50,23,46,176,38*7D
$GPGSV,3,3,12,25,20,108,38,31,20,063,43,37,00,000,39,41,00,000,00*74
$GPGLL,5136.3986,N,00147.7648,W,150908,A,A*5A
$GPBOD,,T,,M,,*47
$PGRME,5.5,M,8.5,M,10.1,M*13
$PGRMZ,472,f,3*1A
$PGRMM,WGS 84*06
$GPRTE,1,1,c,*37
$GPRMC,150910,A,5136.3985,N,00147.7648,W,0.0,164.2,270207,3.3,W,A*1F
$GPRMB,A,,,,,,,,,,,,A,A*0B
$GPGGA,150910,5136.3985,N,00147.7648,W,1,08,1.4,144.2,M,49.1,M,,*57
$GPGSA,A,3,01,,11,,13,17,20,23,25,31,,,2.4,1.4,1.9*3A
$GPGSV,3,1,12,01,36,051,39,04,22,299,00,11,39,139,43,12,04,348,00*7A
$GPGSV,3,2,12,13,18,195,46,17,47,267,45,20,79,063,50,23,46,176,38*7C
$GPGSV,3,3,12,25,20,108,38,31,20,063,43,37,00,000,39,41,00,000,00*74
$GPGLL,5136.3985,N,00147.7648,W,150910,A,A*50
$GPBOD,,T,,M,,*47
$PGRME,5.5,M,8.5,M,10.1,M*13
$PGRMZ,473,f,3*1B
$PGRMM,WGS 84*06
$GPRTE,1,1,c,*37
$GPRMC,150912,A,5136.3984,N,00147.7648,W,0.0,164.2,270207,3.3,W,A*1C
$GPRMB,A,,,,,,,,,,,,A,A*0B
$GPGGA,150912,5136.3984,N,00147.7648,W,1,08,1.4,144.5,M,49.1,M,,*53
$GPGSA,A,3,01,,11,,13,17,20,23,25,31,,,2.4,1.4,2.0*30
$GPGSV,3,1,12,01,36,051,39,04,22,299,00,11,39,139,44,12,04,348,00*7D
$GPGSV,3,2,12,13,18,195,46,17,47,267,44,20,79,063,50,23,46,176,37*72
$GPGSV,3,3,12,25,20,108,38,31,20,063,43,37,00,000,40,41,00,000,00*7A
$GPGLL,5136.3984,N,00147.7648,W,150912,A,A*53
$GPBOD,,T,,M,,*47
$PGRME,5.5,M,8.5,M,10.1,M*13
$PGRMZ,474,f,3*1C
$PGRMM,WGS 84*06
$GPRTE,1,1,c,*37
$GPRMC,150914,A,5136.3983,N,00147.7648,W,0.0,164.2,270207,3.3,W,A*1D
$GPRMB,A,,,,,,,,,,,,A,A*0B
$GPGGA,150914,5136.3983,N,00147.7648,W,1,08,1.5,144.6,M,49.1,M,,*50
$GPGSA,A,3,01,,11,,13,17,20,23,25,31,,,2.5,1.5,2.0*30
$GPGSV,3,1,12,01,36,051,39,04,22,299,00,11,39,139,44,12,04,348,00*7D
$GPGSV,3,2,12,13,18,195,46,17,47,267,44,20,79,063,50,23,46,176,36*73
$GPGSV,3,3,12,25,20,108,39,31,20,063,43,37,00,000,40,42,00,000,00*78
$GPGLL,5136.3983,N,00147.7648,W,150914,A,A*52
$GPBOD,,T,,M,,*47
$PGRME,5.5,M,8.5,M,10.1,M*13
$PGRMZ,475,f,3*1D
$PGRMM,WGS 84*06
$GPRTE,1,1,c,*37
$GPRMC,150916,A,5136.3983,N,00147.7649,W,0.0,164.2,270207,3.3,W,A*1E
$GPRMB,A,,,,,,,,,,,,A,A*0B
$GPGGA,150916,5136.3983,N,00147.7649,W,1,08,1.4,144.8,M,49.1,M,,*5C
$GPGSA,A,3,01,,11,,13,17,20,23,25,31,,,2.4,1.4,2.0*30
$GPGSV,3,1,12,01,36,051,38,04,23,299,00,11,39,139,44,12,04,348,00*7D
$GPGSV,3,2,12,13,18,195,45,17,47,267,43,20,79,063,50,23,46,176,36*77
$GPGSV,3,3,12,25,20,108,39,31,20,063,43,37,00,000,40,42,00,000,00*78
$GPGLL,5136.3983,N,00147.7649,W,150916,A,A*51
$GPBOD,,T,,M,,*47
$PGRME,5.5,M,8.5,M,10.1,M*13
$PGRMZ,475,f,3*1D
$PGRMM,WGS 84*06
$GPRTE,1,1,c,*37
$GPRMC,150918,A,5136.3982,N,00147.7650,W,0.0,164.2,270207,3.3,W,A*19
$GPRMB,A,,,,,,,,,,,,A,A*0B
$GPGGA,150918,5136.3982,N,00147.7650,W,1,08,1.4,144.9,M,49.1,M,,*5A
$GPGSA,A,3,01,,11,,13,17,20,23,25,31,,,2.4,1.4,2.0*30
$GPGSV,3,1,12,01,36,051,38,04,23,299,00,11,39,139,44,12,04,348,00*7D
$GPGSV,3,2,12,13,18,195,45,17,47,267,43,20,79,063,50,23,46,176,37*76
$GPGSV,3,3,12,25,20,108,39,31,20,063,43,37,00,000,40,42,00,000,00*78
$GPGLL,5136.3982,N,00147.7650,W,150918,A,A*56
$GPBOD,,T,,M,,*47
$PGRME,5.5,M,8.5,M,10.1,M*13
$PGRMZ,476,f,3*1E
$PGRMM,WGS 84*06
$GPRTE,1,1,c,*37
$GPRMC,150920,A,5136.3982,N,00147.7650,W,0.0,164.2,270207,3.3,W,A*12
$GPRMB,A,,,,,,,,,,,,A,A*0B
$GPGGA,150920,5136.3982,N,00147.7650,W,1,08,1.7,145.1,M,49.1,M,,*5B
$GPGSA,A,3,01,,11,,13,17,20,23,25,31,,,2.7,1.7,2.0*30
$GPGSV,3,1,12,01,36,051,39,04,23,299,00,11,39,139,44,12,04,348,00*7C
$GPGSV,3,2,12,13,18,195,45,17,47,267,44,20,79,063,50,23,46,176,38*7E
$GPGSV,3,3,12,25,20,108,39,31,20,063,43,37,00,000,40,42,00,000,00*78
$GPGLL,5136.3982,N,00147.7650,W,150920,A,A*5D
$GPBOD,,T,,M,,*47
$PGRME,5.5,M,8.5,M,10.1,M*13
$PGRMZ,476,f,3*1E
$PGRMM,WGS 84*06
$GPRTE,1,1,c,*37
$GPRMC,150922,A,5136.3982,N,00147.7650,W,0.0,164.2,270207,3.3,W,A*10
$GPRMB,A,,,,,,,,,,,,A,A*0B
$GPGGA,150922,5136.3982,N,00147.7650,W,1,08,1.3,145.2,M,49.1,M,,*5E
$GPGSA,A,3,01,,11,,13,17,20,23,25,31,,,2.3,1.3,1.9*3A
$GPGSV,3,1,12,01,36,051,39,04,23,299,00,11,39,139,44,12,04,348,00*7C
$GPGSV,3,2,12,13,18,195,45,17,47,267,44,20,79,063,50,23,46,176,39*7F
$GPGSV,3,3,12,25,20,108,39,31,20,063,43,37,00,000,41,42,00,000,00*79
$GPGLL,5136.3982,N,00147.7650,W,150922,A,A*5F
$GPBOD,,T,,M,,*47
$PGRME,5.5,M,8.5,M,10.1,M*13
$PGRMZ,476,f,3*1E
$PGRMM,WGS 84*06
$GPRTE,1,1,c,*37
$GPRMC,150924,A,5136.3983,N,00147.7651,W,0.0,164.2,270207,3.3,W,A*16
$GPRMB,A,,,,,,,,,,,,A,A*0B
$GPGGA,150924,5136.3983,N,00147.7651,W,1,08,1.3,145.3,M,49.1,M,,*59
$GPGSA,A,3,01,,11,,13,17,20,23,25,31,,,2.3,1.3,1.9*3A
$GPGSV,3,1,12,01,36,051,39,04,23,299,00,11,39,139,45,12,04,348,00*7D
$GPGSV,3,2,12,13,18,195,45,17,47,265,45,20,79,063,50,23,46,176,40*72
$GPGSV,3,3,12,25,20,108,40,31,20,063,43,37,00,000,41,42,00,000,00*77
$GPGLL,5136.3983,N,00147.7651,W,150924,A,A*59
$GPBOD,,T,,M,,*47
$PGRME,5.5,M,8.5,M,10.1,M*13
$PGRMZ,477,f,3*1F
$PGRMM,WGS 84*06
$GPRTE,1,1,c,*37
$GPRMC,150926,A,5136.3983,N,00147.7651,W,0.0,164.2,270207,3.3,W,A*14
$GPRMB,A,,,,,,,,,,,,A,A*0B
$GPGGA,150926,5136.3983,N,00147.7651,W,1,08,1.2,145.2,M,49.1,M,,*5B
$GPGSA,A,3,01,,11,,13,17,20,23,25,31,,,2.2,1.2,1.8*3B
$GPGSV,3,1,12,01,36,051,39,04,23,299,00,11,39,139,45,12,04,348,00*7D
$GPGSV,3,2,12,13,18,195,45,17,47,265,45,20,79,063,50,23,46,176,41*73
$GPGSV,3,3,12,25,20,108,39,31,20,063,44,37,00,000,40,42,00,000,00*7F
$GPGLL,5136.3983,N,00147.7651,W,150926,A,A*5B
$GPBOD,,T,,M,,*47
$PGRME,5.5,M,8.5,M,10.1,M*13
$PGRMZ,476,f,3*1E
$PGRMM,WGS 84*06
$GPRTE,1,1,c,*37
$GPRMC,150928,A,5136.3983,N,00147.7651,W,0.0,164.2,270207,3.3,W,A*1A
$GPRMB,A,,,,,,,,,,,,A,A*0B
$GPGGA,150928,5136.3983,N,00147.7651,W,1,08,1.2,145.1,M,49.1,M,,*56
$GPGSA,A,3,01,,11,,13,17,20,23,25,31,,,2.2,1.2,1.8*3B
$GPGSV,3,1,12,01,36,051,39,04,23,299,00,11,39,139,44,12,04,348,00*7C
$GPGSV,3,2,12,13,18,195,45,17,47,265,44,20,79,063,50,23,46,176,41*72
$GPGSV,3,3,12,25,20,108,39,31,20,063,43,37,00,000,40,42,00,000,00*78
$GPGLL,5136.3983,N,00147.7651,W,150928,A,A*55
$GPBOD,,T,,M,,*47
$PGRME,5.5,M,8.5,M,10.1,M*13
$PGRMZ,476,f,3*1E
$PGRMM,WGS 84*06
$GPRTE,1,1,c,*37
$GPRMC,150930,A,5136.3983,N,00147.7650,W,0.0,164.2,270207,3.3,W,A*12
$GPRMB,A,,,,,,,,,,,,A,A*0B
$GPGGA,150930,5136.3983,N,00147.7650,W,1,08,1.5,145.0,M,49.1,M,,*58
$GPGSA,A,3,01,,11,,13,17,20,23,25,31,,,2.5,1.5,1.9*3A
$GPGSV,3,1,12,01,36,051,39,04,23,299,00,11,39,139,45,12,04,348,00*7D
$GPGSV,3,2,12,13,18,195,45,17,47,265,44,20,79,063,50,23,46,176,41*72
$GPGSV,3,3,12,25,20,108,39,31,20,063,43,37,00,000,40,42,00,000,00*78
$GPGLL,5136.3983,N,00147.7650,W,150930,A,A*5D
$GPBOD,,T,,M,,*47
$PGRME,5.5,M,8.5,M,10.1,M*13
$PGRMZ,476,f,3*1E
$PGRMM,WGS 84*06
$GPRTE,1,1,c,*37
$GPRMC,150932,A,5136.3983,N,00147.7650,W,0.0,164.2,270207,3.3,W,A*10
$GPRMB,A,,,,,,,,,,,,A,A*0B
$GPGGA,150932,5136.3983,N,00147.7650,W,1,08,1.3,144.9,M,49.1,M,,*54
$GPGSA,A,3,01,,11,,13,17,20,23,25,31,,,2.3,1.3,1.9*3A
$GPGSV,3,1,12,01,36,051,39,04,23,299,00,11,39,139,44,12,04,348,00*7C
$GPGSV,3,2,12,13,18,195,44,17,47,265,44,20,79,063,50,23,46,176,40*72
$GPGSV,3,3,12,25,20,108,39,31,20,063,43,37,00,000,39,42,00,000,00*76
$GPGLL,5136.3983,N,00147.7650,W,150932,A,A*5F
$GPBOD,,T,,M,,*47
$PGRME,5.5,M,8.5,M,10.1,M*13
$PGRMZ,476,f,3*1E
$PGRMM,WGS 84*06
$GPRTE,1,1,c,*37
$GPRMC,150934,A,5136.3983,N,00147.7650,W,0.0,164.2,270207,3.3,W,A*16
$GPRMB,A,,,,,,,,,,,,A,A*0B
$GPGGA,150934,5136.3983,N,00147.7650,W,1,08,1.3,144.9,M,49.1,M,,*52
$GPGSA,A,3,01,,11,,13,17,20,23,25,31,,,2.3,1.3,1.9*3A
$GPGSV,3,1,12,01,36,051,38,04,23,299,00,11,39,139,44,12,04,348,00*7D
$GPGSV,3,2,12,13,18,195,44,17,47,265,44,20,79,064,50,23,46,176,40*75
$GPGSV,3,3,12,25,20,108,38,31,20,063,43,37,00,000,39,42,00,000,00*77
$GPGLL,5136.3983,N,00147.7650,W,150934,A,A*59
$GPBOD,,T,,M,,*47
$PGRME,5.5,M,8.5,M,10.1,M*13
$PGRMZ,475,f,3*1D
$PGRMM,WGS 84*06
$GPRTE,1,1,c,*37
$GPRMC,150936,A,5136.3983,N,00147.7650,W,0.0,164.2,270207,3.3,W,A*14
$GPRMB,A,,,,,,,,,,,,A,A*0B
$GPGGA,150936,5136.3983,N,00147.7650,W,1,08,1.3,145.0,M,49.1,M,,*58
$GPGSA,A,3,01,,11,,13,17,20,23,25,31,,,2.3,1.3,1.9*3A
$GPGSV,3,1,12,01,36,051,39,04,23,299,00,11,39,139,44,12,04,348,00*7C
$GPGSV,3,2,12,13,18,195,44,17,47,265,44,20,79,064,50,23,46,176,40*75
$GPGSV,3,3,12,25,20,108,39,31,20,063,44,37,00,000,38,42,00,000,00*70
$GPGLL,5136.3983,N,00147.7650,W,150936,A,A*5B
$GPBOD,,T,,M,,*47
$PGRME,5.5,M,8.5,M,10.1,M*13
$PGRMZ,476,f,3*1E
$PGRMM,WGS 84*06
$GPRTE,1,1,c,*37
$GPRMC,150938,A,5136.3982,N,00147.7650,W,0.0,164.2,270207,3.3,W,A*1B
$GPRMB,A,,,,,,,,,,,,A,A*0B
$GPGGA,150938,5136.3982,N,00147.7650,W,1,08,1.4,145.1,M,49.1,M,,*51
$GPGSA,A,3,01,,11,,13,17,20,23,25,31,,,2.3,1.4,1.9*3D
$GPGSV,3,1,12,01,36,051,39,04,23,299,00,11,39,139,44,12,04,348,00*7C
$GPGSV,3,2,12,13,18,195,44,17,47,265,44,20,79,064,50,23,46,176,39*7B
$GPGSV,3,3,12,25,20,108,38,31,20,063,44,37,00,000,38,42,00,000,00*71
$GPGLL,5136.3982,N,00147.7650,W,150938,A,A*54
$GPBOD,,T,,M,,*47
$PGRME,5.5,M,8.5,M,10.1,M*13
$PGRMZ,476,f,3*1E
$PGRMM,WGS 84*06
$GPRTE,1,1,c,*37
$GPRMC,150940,A,5136.3982,N,00147.7650,W,0.0,164.2,270207,3.3,W,A*14
$GPRMB,A,,,,,,,,,,,,A,A*0B
$GPGGA,150940,5136.3982,N,00147.7650,W,1,08,1.3,145.2,M,49.1,M,,*5A
$GPGSA,A,3,01,,11,,13,17,20,23,25,31,,,2.3,1.3,1.9*3A
$GPGSV,3,1,12,01,36,051,39,04,23,299,00,11,39,139,44,12,04,348,00*7C
$GPGSV,3,2,12,13,18,195,44,17,47,265,44,20,79,064,50,23,46,176,39*7B
$GPGSV,3,3,12,25,20,108,38,31,20,063,44,37,00,000,38,42,00,000,00*71
$GPGLL,5136.3982,N,00147.7650,W,150940,A,A*5B
$GPBOD,,T,,M,,*47
$PGRME,5.5,M,8.5,M,10.1,M*13
$PGRMZ,476,f,3*1E
$PGRMM,WGS 84*06
$GPRTE,1,1,c,*37
$GPRMC,150942,A,5136.3982,N,00147.7650,W,0.0,164.2,270207,3.3,W,A*16
$GPRMB,A,,,,,,,,,,,,A,A*0B
$GPGGA,150942,5136.3982,N,00147.7650,W,1,08,1.3,145.4,M,49.1,M,,*5E
$GPGSA,A,3,01,,11,,13,17,20,23,25,31,,,2.3,1.3,1.9*3A
$GPGSV,3,1,12,01,36,051,39,04,23,299,00,11,39,139,44,12,04,348,00*7C
$GPGSV,3,2,12,13,18,195,44,17,47,265,44,20,79,064,50,23,46,176,38*7A
$GPGSV,3,3,12,25,20,108,38,31,20,063,44,37,00,000,39,42,00,000,00*70
$GPGLL,5136.3982,N,00147.7650,W,150942,A,A*59
$GPBOD,,T,,M,,*47
$PGRME,5.5,M,8.5,M,10.1,M*13
$PGRMZ,477,f,3*1F
$PGRMM,WGS 84*06
$GPRTE,1,1,c,*37
$GPRMC,150944,A,5136.3981,N,00147.7651,W,0.0,164.2,270207,3.3,W,A*12
$GPRMB,A,,,,,,,,,,,,A,A*0B
$GPGGA,150944,5136.3981,N,00147.7651,W,1,08,1.4,145.6,M,49.1,M,,*5F
$GPGSA,A,3,01,,11,,13,17,20,23,25,31,,,2.3,1.4,1.9*3D
$GPGSV,3,1,12,01,36,051,39,04,23,299,00,11,39,139,44,12,04,348,00*7C
$GPGSV,3,2,12,13,18,195,44,17,47,265,44,20,79,064,50,23,46,176,38*7A
$GPGSV,3,3,12,25,20,108,38,31,20,063,44,37,00,000,39,42,00,000,00*70
$GPGLL,5136.3981,N,00147.7651,W,150944,A,A*5D
$GPBOD,,T,,M,,*47
$PGRME,5.5,M,8.5,M,10.1,M*13
$PGRMZ,478,f,3*10
$PGRMM,WGS 84*06
$GPRTE,1,1,c,*37
$GPRMC,150946,A,5136.3981,N,00147.7652,W,0.0,164.2,270207,3.3,W,A*13
$GPRMB,A,,,,,,,,,,,,A,A*0B
$GPGGA,150946,5136.3981,N,00147.7652,W,1,08,1.5,145.7,M,49.1,M,,*5E
$GPGSA,A,3,01,,11,,13,17,20,23,25,31,,,2.5,1.5,1.0*33
$GPGSV,3,1,12,01,36,051,39,04,23,299,00,11,39,139,44,12,04,348,00*7C
$GPGSV,3,2,12,13,18,195,44,17,47,265,43,20,79,064,50,23,47,176,39*7D
$GPGSV,3,3,12,25,20,108,38,31,20,063,43,37,00,000,39,42,00,000,00*77
$GPGLL,5136.3981,N,00147.7652,W,150946,A,A*5C
$GPBOD,,T,,M,,*47
$PGRME,5.5,M,8.5,M,10.1,M*13
$PGRMZ,478,f,3*10
$PGRMM,WGS 84*06
$GPRTE,1,1,c,*37
$GPRMC,150948,A,5136.3981,N,00147.7653,W,0.0,164.2,270207,3.3,W,A*1C
$GPRMB,A,,,,,,,,,,,,A,A*0B
$GPGGA,150948,5136.3981,N,00147.7653,W,1,08,1.3,145.8,M,49.1,M,,*58
$GPGSA,A,3,01,,11,,13,17,20,23,25,31,,,2.3,1.3,1.2*31
$GPGSV,3,1,12,01,36,051,39,04,23,299,00,11,39,139,45,12,04,348,00*7D
$GPGSV,3,2,12,13,18,195,44,17,47,265,43,20,79,064,50,23,47,176,39*7D
$GPGSV,3,3,12,25,20,108,38,31,20,063,43,37,00,000,38,42,00,000,00*76
$GPGLL,5136.3981,N,00147.7653,W,150948,A,A*53
$GPBOD,,T,,M,,*47
$PGRME,5.5,M,8.5,M,10.1,M*13
$PGRMZ,478,f,3*10
$PGRMM,WGS 84*06
$GPRTE,1,1,c,*37
$GPRMC,150950,A,5136.3981,N,00147.7653,W,0.0,164.2,270207,3.3,W,A*15
$GPRMB,A,,,,,,,,,,,,A,A*0B
$GPGGA,150950,5136.3981,N,00147.7653,W,1,08,1.3,145.9,M,49.1,M,,*50
$GPGSA,A,3,01,,11,,13,17,20,23,25,31,,,2.3,1.3,1.3*30
$GPGSV,3,1,12,01,36,051,39,04,23,299,00,11,39,139,46,12,04,348,00*7E
$GPGSV,3,2,12,13,18,195,43,17,47,265,44,20,79,064,50,23,47,176,40*73
$GPGSV,3,3,12,25,20,108,38,31,20,063,42,37,00,000,38,42,00,000,00*77
$GPGLL,5136.3981,N,00147.7653,W,150950,A,A*5A
$GPBOD,,T,,M,,*47
$PGRME,5.5,M,8.5,M,10.1,M*13
$PGRMZ,479,f,3*11
$PGRMM,WGS 84*06
$GPRTE,1,1,c,*37
$GPRMC,150952,A,5136.3981,N,00147.7653,W,0.0,164.2,270207,3.3,W,A*17
$GPRMB,A,,,,,,,,,,,,A,A*0B
$GPGGA,150952,5136.3981,N,00147.7653,W,1,08,1.2,146.0,M,49.1,M,,*59
$GPGSA,A,3,01,,11,,13,17,20,23,25,31,,,2.2,1.2,1.4*37
$GPGSV,3,1,12,01,36,051,39,04,23,299,00,11,39,139,46,12,04,348,00*7E
$GPGSV,3,2,12,13,18,195,44,17,47,265,43,20,79,064,49,23,47,176,40*7B
$GPGSV,3,3,12,25,20,108,39,31,20,063,43,37,00,000,38,42,00,000,00*77
$GPGLL,5136.3981,N,00147.7653,W,150952,A,A*58
$GPBOD,,T,,M,,*47
$PGRME,5.5,M,8.5,M,10.1,M*13
$PGRMZ,479,f,3*11
$PGRMM,WGS 84*06
$GPRTE,1,1,c,*37
$GPRMC,150954,A,5136.3981,N,00147.7652,W,0.0,164.2,270207,3.3,W,A*10
$GPRMB,A,,,,,,,,,,,,A,A*0B
$GPGGA,150954,5136.3981,N,00147.7652,W,1,08,1.2,146.2,M,49.1,M,,*5C
$GPGSA,A,3,01,,11,,13,17,20,23,25,31,,,2.2,1.2,1.5*36
$GPGSV,3,1,12,01,36,051,40,04,23,299,00,11,39,139,46,12,04,348,00*70
$GPGSV,3,2,12,13,18,195,44,17,47,265,43,20,79,064,50,23,47,176,40*73
$GPGSV,3,3,12,25,21,108,38,31,20,063,43,37,00,000,40,42,00,000,00*78
$GPGLL,5136.3981,N,00147.7652,W,150954,A,A*5F
$GPBOD,,T,,M,,*47
$PGRME,5.5,M,8.5,M,10.1,M*13
$PGRMZ,480,f,3*17
$PGRMM,WGS 84*06
$GPRTE,1,1,c,*37
$GPRMC,150956,A,5136.3980,N,00147.7652,W,0.0,164.2,270207,3.3,W,A*13
$GPRMB,A,,,,,,,,,,,,A,A*0B
$GPGGA,150956,5136.3980,N,00147.7652,W,1,08,1.3,146.2,M,49.1,M,,*5E
$GPGSA,A,3,01,,11,,13,17,20,23,25,31,,,2.3,1.3,1.6*35
$GPGSV,3,1,12,01,36,051,41,04,23,299,00,11,39,139,46,12,04,348,00*71
$GPGSV,3,2,12,13,18,195,44,17,47,265,43,20,79,064,50,23,47,176,40*73
$GPGSV,3,3,12,25,21,108,38,31,20,063,43,37,00,000,40,42,00,000,00*78
$GPGLL,5136.3980,N,00147.7652,W,150956,A,A*5C
$GPBOD,,T,,M,,*47
$PGRME,5.5,M,8.5,M,10.1,M*13
$PGRMZ,480,f,3*17
$PGRMM,WGS 84*06
$GPRTE,1,1,c,*37
$GPRMC,150958,A,5136.3979,N,00147.7651,W,0.0,164.2,270207,3.3,W,A*18
$GPRMB,A,,,,,,,,,,,,A,A*0B
$GPGGA,150958,5136.3979,N,00147.7651,W,1,08,1.3,146.3,M,49.1,M,,*54
$GPGSA,A,3,01,,11,,13,17,20,23,25,31,,,2.3,1.3,1.6*35
$GPGSV,3,1,12,01,36,051,41,04,23,299,00,11,39,139,45,12,04,348,00*72
$GPGSV,3,2,12,13,18,195,43,17,47,265,45,20,79,064,50,23,47,176,40*72
$GPGSV,3,3,12,25,21,108,39,31,20,063,43,37,00,000,41,42,00,000,00*78
$GPGLL,5136.3979,N,00147.7651,W,150958,A,A*57
$GPBOD,,T,,M,,*47
$PGRME,5.5,M,8.5,M,10.1,M*13
$PGRMZ,480,f,3*17
$PGRMM,WGS 84*06
$GPRTE,1,1,c,*37
$GPRMC,151000,A,5136.3978,N,00147.7650,W,0.2,164.2,270207,3.3,W,A*1F
$GPRMB,A,,,,,,,,,,,,A,A*0B
$GPGGA,151000,5136.3978,N,00147.7650,W,1,08,1.2,146.2,M,49.1,M,,*51
$GPGSA,A,3,01,,11,,13,17,20,23,25,31,,,2.2,1.2,1.6*35
$GPGSV,3,1,12,01,36,051,40,04,23,299,00,11,39,139,45,12,04,348,00*73
$GPGSV,3,2,12,13,18,195,43,17,47,265,46,20,79,064,49,23,47,176,41*78
$GPGSV,3,3,12,25,21,108,40,31,20,063,44,37,00,000,42,42,00,000,00*72
$GPGLL,5136.3978,N,00147.7650,W,151000,A,A*52
$GPBOD,,T,,M,,*47
$PGRME,5.5,M,8.5,M,10.1,M*13
$PGRMZ,480,f,3*17
$PGRMM,WGS 84*06
$GPRTE,1,1,c,*37
$GPRMC,151002,A,5136.3978,N,00147.7649,W,0.0,164.2,270207,3.3,W,A*17
$GPRMB,A,,,,,,,,,,,,A,A*0B
$GPGGA,151002,5136.3978,N,00147.7649,W,1,08,1.2,146.0,M,49.1,M,,*59
$GPGSA,A,3,01,,11,,13,17,20,23,25,31,,,2.2,1.2,1.7*34
$GPGSV,3,1,12,01,36,051,00,04,23,299,00,11,39,139,46,12,04,348,00*74
$GPGSV,3,2,12,13,18,195,42,17,47,265,46,20,79,064,49,23,47,176,42*7A
$GPGSV,3,3,12,25,21,108,40,31,20,063,44,37,00,000,43,42,00,000,00*73
$GPGLL,5136.3978,N,00147.7649,W,151002,A,A*58
$GPBOD,,T,,M,,*47
$PGRME,5.5,M,8.5,M,10.1,M*13
$PGRMZ,479,f,3*11
$PGRMM,WGS 84*06
$GPRTE,1,1,c,*37
$GPRMC,151004,A,5136.3977,N,00147.7649,W,0.6,185.1,270207,3.3,W,A*14
$GPRMB,A,,,,,,,,,,,,A,A*0B
$GPGGA,151004,5136.3977,N,00147.7649,W,1,08,1.2,145.6,M,49.1,M,,*55
$GPGSA,A,3,01,,11,,13,17,20,23,25,31,,,2.2,1.2,1.7*34
$GPGSV,3,1,12,01,36,051,00,04,23,299,00,11,39,139,47,12,04,348,00*75
$GPGSV,3,2,12,13,18,195,42,17,47,265,47,20,79,064,49,23,47,176,42*7B
$GPGSV,3,3,12,25,21,108,40,31,20,063,44,37,00,000,42,42,00,000,00*72
$GPGLL,5136.3977,N,00147.7649,W,151004,A,A*51
$GPBOD,,T,,M,,*47
$PGRME,5.5,M,8.5,M,10.1,M*13
$PGRMZ,478,f,3*10
$PGRMM,WGS 84*06
$GPRTE,1,1,c,*37
$GPRMC,151006,A,5136.3965,N,00147.7645,W,3.3,167.1,270207,3.3,W,A*13
$GPRMB,A,,,,,,,,,,,,A,A*0B
$GPGGA,151006,5136.3965,N,00147.7645,W,1,08,1.3,145.2,M,49.1,M,,*5D
$GPGSA,A,3,01,,11,,13,17,20,23,25,31,,,2.4,1.3,1.8*3C
$GPGSV,3,1,12,01,36,051,00,04,23,299,00,11,39,139,48,12,04,348,00*7A
$GPGSV,3,2,12,13,18,195,41,17,47,265,46,20,79,064,48,23,47,176,42*78
$GPGSV,3,3,12,25,21,108,40,31,20,063,42,37,00,000,42,42,00,000,00*74
$GPGLL,5136.3965,N,00147.7645,W,151006,A,A*5C
$GPBOD,,T,,M,,*47
$PGRME,5.5,M,8.5,M,10.1,M*13
$PGRMZ,476,f,3*1E
$PGRMM,WGS 84*06
$GPRTE,1,1,c,*37
$GPRMC,151008,A,5136.3934,N,00147.7629,W,6.9,163.3,270207,3.3,W,A*1A
$GPRMB,A,,,,,,,,,,,,A,A*0B
$GPGGA,151008,5136.3934,N,00147.7629,W,1,08,1.3,144.8,M,49.1,M,,*56
$GPGSA,A,3,01,,11,,13,17,20,23,25,31,,,2.3,1.3,1.9*3A
$GPGSV,3,1,12,01,36,051,00,04,23,299,00,11,39,139,49,12,04,348,00*7B
$GPGSV,3,2,12,13,18,195,41,17,47,265,46,20,79,064,48,23,47,176,43*79
$GPGSV,3,3,12,25,21,108,40,31,20,063,41,37,00,000,42,42,00,000,00*77
$GPGLL,5136.3934,N,00147.7629,W,151008,A,A*5C
$GPBOD,,T,,M,,*47
$PGRME,5.5,M,8.5,M,10.1,M*13
$PGRMZ,475,f,3*1D
$PGRMM,WGS 84*06
$GPRTE,1,1,c,*37
$GPRMC,151010,A,5136.3887,N,00147.7606,W,10.2,163.2,270207,3.3,W,A*2A
$GPRMB,A,,,,,,,,,,,,A,A*0B
$GPGGA,151010,5136.3887,N,00147.7606,W,1,08,1.5,144.3,M,49.1,M,,*56
$GPGSA,A,3,01,,11,,13,17,20,23,25,31,,,2.6,1.5,2.2*31
$GPGSV,3,1,12,01,36,051,00,04,23,299,00,11,39,139,49,12,04,348,00*7B
$GPGSV,3,2,12,13,18,195,41,17,47,265,46,20,79,064,48,23,47,176,43*79
$GPGSV,3,3,12,25,21,108,39,31,20,063,41,37,00,000,40,42,00,000,00*7B
$GPGLL,5136.3887,N,00147.7606,W,151010,A,A*51
$GPBOD,,T,,M,,*47
$PGRME,5.5,M,8.5,M,10.1,M*13
$PGRMZ,473,f,3*1B
$PGRMM,WGS 84*06
$GPRTE,1,1,c,*37
$GPRMC,151012,A,5136.3824,N,00147.7573,W,12.7,161.3,270207,3.3,W,A*24
$GPRMB,A,,,,,,,,,,,,A,A*0B
$GPGGA,151012,5136.3824,N,00147.7573,W,1,07,1.3,143.6,M,49.1,M,,*57
$GPGSA,A,3,,,11,,13,17,20,23,25,31,,,2.2,1.3,1.9*3A
$GPGSV,3,1,12,01,36,051,00,04,23,299,00,11,39,139,49,12,04,348,00*7B
$GPGSV,3,2,12,13,18,195,42,17,47,265,46,20,79,064,48,23,47,176,44*7D
$GPGSV,3,3,12,25,21,108,41,31,20,063,42,37,00,000,40,42,00,000,00*77
$GPGLL,5136.3824,N,00147.7573,W,151012,A,A*5B
$GPBOD,,T,,M,,*47
$PGRME,5.5,M,8.5,M,10.1,M*13
$PGRMZ,471,f,3*19
$PGRMM,WGS 84*06
$GPRTE,1,1,c,*37
$GPRMC,151014,A,5136.3754,N,00147.7522,W,14.6,153.9,270207,3.3,W,A*22
$GPRMB,A,,,,,,,,,,,,A,A*0B
$GPGGA,151014,5136.3754,N,00147.7522,W,1,08,1.5,142.7,M,49.1,M,,*54
$GPGSA,A,3,,04,11,,13,17,20,23,25,31,,,2.6,1.5,2.2*34
$GPGSV,3,1,12,01,36,051,00,04,23,299,40,11,39,139,48,12,04,348,00*7E
$GPGSV,3,2,12,13,18,195,44,17,47,265,46,20,79,064,48,23,47,176,44*7B
$GPGSV,3,3,12,25,21,108,41,31,20,063,42,37,00,000,41,43,00,000,00*77
$GPGLL,5136.3754,N,00147.7522,W,151014,A,A*51
$GPBOD,,T,,M,,*47
$PGRME,5.2,M,7.5,M,9.1,M*23
$PGRMZ,468,f,3*11
$PGRMM,WGS 84*06
$GPRTE,1,1,c,*37
$GPRMC,151016,A,5136.3676,N,00147.7451,W,16.7,151.2,270207,3.3,W,A*2E
$GPRMB,A,,,,,,,,,,,,A,A*0B
$GPGGA,151016,5136.3676,N,00147.7451,W,1,09,1.6,142.3,M,49.1,M,,*54
$GPGSA,A,3,01,04,11,,13,17,20,23,25,31,,,2.7,1.6,1.9*3F
$GPGSV,3,1,12,01,36,051,31,04,23,299,00,11,39,139,46,12,04,348,00*76
$GPGSV,3,2,12,13,18,195,44,17,47,265,45,20,79,064,49,23,47,176,44*79
$GPGSV,3,3,12,25,21,108,41,31,20,063,43,37,00,000,42,43,00,000,00*75
$GPGLL,5136.3676,N,00147.7451,W,151016,A,A*57
$GPBOD,,T,,M,,*47
$PGRME,5.3,M,7.7,M,9.4,M*25
$PGRMZ,467,f,3*1E
$PGRMM,WGS 84*06
$GPRTE,1,1,c,*37
$GPRMC,151018,A,5136.3589,N,00147.7376,W,18.1,152.5,270207,3.3,W,A*2D
$GPRMB,A,,,,,,,,,,,,A,A*0B
$GPGGA,151018,5136.3589,N,00147.7376,W,1,09,1.3,142.0,M,49.1,M,,*5D
$GPGSA,A,3,01,04,11,,13,17,20,23,25,31,,,2.3,1.3,1.9*3E
$GPGSV,3,1,12,01,36,051,00,04,23,299,33,11,39,139,45,12,04,348,32*76
$GPGSV,3,2,12,13,18,195,44,17,47,265,45,20,79,064,49,23,47,176,43*7E
$GPGSV,3,3,12,25,21,108,41,31,20,063,44,37,00,000,43,43,00,000,00*73
$GPGLL,5136.3589,N,00147.7376,W,151018,A,A*58
$GPBOD,,T,,M,,*47
$PGRME,5.2,M,7.5,M,9.1,M*23
$PGRMZ,466,f,3*1F
$PGRMM,WGS 84*06
$GPRTE,1,1,c,*37
$GPRMC,151020,A,5136.3496,N,00147.7294,W,19.5,151.1,270207,3.3,W,A*26
$GPRMB,A,,,,,,,,,,,,A,A*0B
$GPGGA,151020,5136.3496,N,00147.7294,W,1,09,1.3,141.7,M,49.1,M,,*50
$GPGSA,A,3,01,04,11,,13,17,20,23,25,31,,,2.3,1.3,1.9*3E
$GPGSV,3,1,12,01,36,051,36,04,23,299,33,11,39,139,44,12,04,348,34*74
$GPGSV,3,2,12,13,18,195,43,17,47,265,44,20,79,064,49,23,47,176,43*78
$GPGSV,3,3,12,25,21,108,41,31,20,063,44,37,00,000,42,43,00,000,00*72
$GPGLL,5136.3496,N,00147.7294,W,151020,A,A*51
$GPBOD,,T,,M,,*47
$PGRME,4.7,M,7.5,M,8.8,M*2F
$PGRMZ,465,f,3*1C
$PGRMM,WGS 84*06
$GPRTE,1,1,c,*37
$GPRMC,151022,A,5136.3405,N,00147.7197,W,19.4,144.3,270207,3.3,W,A*29
$GPRMB,A,,,,,,,,,,,,A,A*0B
$GPGGA,151022,5136.3405,N,00147.7197,W,1,09,1.5,141.3,M,49.1,M,,*5A
$GPGSA,A,3,01,04,11,,13,17,20,23,25,31,,,2.7,1.5,2.2*34
$GPGSV,3,1,12,01,36,051,36,04,23,299,00,11,39,139,43,12,04,348,00*74
$GPGSV,3,2,12,13,18,195,44,17,47,265,45,20,79,064,49,23,47,176,43*7E
$GPGSV,3,3,12,25,21,108,41,31,20,063,43,37,00,000,41,43,00,000,00*76
$GPGLL,5136.3405,N,00147.7197,W,151022,A,A*59
$GPBOD,,T,,M,,*47
$PGRME,4.7,M,7.5,M,8.8,M*2F
$PGRMZ,464,f,3*1D
$PGRMM,WGS 84*06
$GPRTE,1,1,c,*37
$GPRMC,151024,A,5136.3324,N,00147.7080,W,19.8,136.5,270207,3.3,W,A*23
$GPRMB,A,,,,,,,,,,,,A,A*0B
$GPGGA,151024,5136.3324,N,00147.7080,W,1,09,1.7,141.0,M,49.1,M,,*5E
$GPGSA,A,3,01,04,11,,13,17,20,23,25,31,,,2.8,1.7,2.2*39
$GPGSV,3,1,12,01,35,051,38,04,23,299,00,11,39,139,43,12,04,348,39*73
$GPGSV,3,2,12,13,18,195,43,17,47,265,43,20,79,064,50,23,47,176,43*77
$GPGSV,3,3,12,25,21,108,43,31,20,063,43,37,00,000,39,43,00,000,00*7B
$GPGLL,5136.3324,N,00147.7080,W,151024,A,A*5C
$GPBOD,,T,,M,,*47
$PGRME,4.7,M,7.5,M,8.8,M*2F
$PGRMZ,462,f,3*1B
$PGRMM,WGS 84*06
$GPRTE,1,1,c,*37
$GPRMC,151026,A,5136.3251,N,00147.6950,W,19.8,130.7,270207,3.3,W,A*23
$GPRMB,A,,,,,,,,,,,,A,A*0B
$GPGGA,151026,5136.3251,N,00147.6950,W,1,09,2.0,140.5,M,49.1,M,,*5A
$GPGSA,A,3,01,04,11,,13,17,20,23,25,31,,,3.2,2.0,2.5*31
$GPGSV,3,1,12,01,35,051,38,04,23,299,00,11,39,139,43,12,04,348,39*73
$GPGSV,3,2,12,13,18,195,41,17,47,265,00,20,79,064,50,23,47,176,45*74
$GPGSV,3,3,12,25,21,108,43,31,20,063,42,37,00,000,00,43,00,000,00*70
$GPGLL,5136.3251,N,00147.6950,W,151026,A,A*58
$GPBOD,,T,,M,,*47
$PGRME,6.2,M,8.8,M,10.8,M*13
$PGRMZ,461,f,3*18
$PGRMM,WGS 84*06
$GPRTE,1,1,c,*37
$GPRMC,151028,A,5136.3179,N,00147.6809,W,20.6,130.0,270207,3.3,W,A*2A
$GPRMB,A,,,,,,,,,,,,A,A*0B
$GPGGA,151028,5136.3179,N,00147.6809,W,1,09,2.1,140.3,M,49.1,M,,*57
$GPGSA,A,3,01,04,11,,13,17,20,23,25,31,,,3.2,2.1,1.0*36
$GPGSV,3,1,12,01,35,051,39,04,23,299,00,11,39,139,43,12,04,348,40*7C
$GPGSV,3,2,12,13,18,195,40,17,47,265,00,20,79,064,50,23,47,176,46*76
$GPGSV,3,3,12,25,21,108,44,31,20,063,42,37,00,000,37,43,00,000,00*73
$GPGLL,5136.3179,N,00147.6809,W,151028,A,A*52
$GPBOD,,T,,M,,*47
$PGRME,7.4,M,9.8,M,12.3,M*1C
$PGRMZ,460,f,3*19
$PGRMM,WGS 84*06
$GPRTE,1,1,c,*37
$GPRMC,151030,A,5136.3108,N,00147.6670,W,20.6,129.5,270207,3.3,W,A*28
$GPRMB,A,,,,,,,,,,,,A,A*0B
$GPGGA,151030,5136.3108,N,00147.6670,W,1,08,2.3,139.3,M,49.1,M,,*55
$GPGSA,A,3,01,,11,,13,17,20,23,25,31,,,2.5,2.3,1.0*36
$GPGSV,3,1,12,01,35,051,39,04,23,299,00,11,39,139,44,12,04,348,00*7F
$GPGSV,3,2,12,13,18,195,38,17,47,265,00,20,79,064,49,23,47,176,46*71
$GPGSV,3,3,12,25,21,108,43,31,20,063,41,37,00,000,36,43,00,000,00*76
$GPGLL,5136.3108,N,00147.6670,W,151030,A,A*5D
$GPBOD,,T,,M,,*47
$PGRME,7.5,M,9.3,M,12.4,M*11
$PGRMZ,457,f,3*1D
$PGRMM,WGS 84*06
$GPRTE,1,1,c,*37
$GPRMC,151032,A,5136.3048,N,00147.6520,W,19.4,119.6,270207,3.3,W,A*21
$GPRMB,A,,,,,,,,,,,,A,A*0B
$GPGGA,151032,5136.3048,N,00147.6520,W,1,08,1.6,139.0,M,49.1,M,,*51
$GPGSA,A,3,01,,11,,13,17,20,23,25,31,,,3.0,1.6,1.6*32
$GPGSV,3,1,12,01,35,051,42,04,23,299,00,11,39,139,43,12,04,348,00*74
$GPGSV,3,2,12,13,18,195,38,17,47,265,39,20,79,064,48,23,47,176,48*74
$GPGSV,3,3,12,25,21,108,44,31,20,063,41,37,00,000,35,43,00,000,00*72
$GPGLL,5136.3048,N,00147.6520,W,151032,A,A*5C
$GPBOD,,T,,M,,*47
$PGRME,5.5,M,8.5,M,10.1,M*13
$PGRMZ,456,f,3*1C
$PGRMM,WGS 84*06
$GPRTE,1,1,c,*37
$GPRMC,151034,A,5136.3028,N,00147.6372,W,16.5,96.6,270207,3.3,W,A*18
$GPRMB,A,,,,,,,,,,,,A,A*0B
$GPGGA,151034,5136.3028,N,00147.6372,W,1,09,1.5,138.7,M,49.1,M,,*54
$GPGSA,A,3,01,04,11,,13,17,20,23,25,31,,,2.9,1.5,1.8*33
$GPGSV,3,1,12,01,35,051,44,04,23,299,37,11,39,139,44,12,04,348,00*71
$GPGSV,3,2,12,13,18,195,39,17,47,265,38,20,79,064,49,23,47,176,48*75
$GPGSV,3,3,12,25,21,108,43,31,20,063,42,37,00,000,37,43,00,000,00*74
$GPGLL,5136.3028,N,00147.6372,W,151034,A,A*5D
$GPBOD,,T,,M,,*47
$PGRME,4.6,M,7.4,M,8.7,M*20
$PGRMZ,455,f,3*1F
$PGRMM,WGS 84*06
$GPRTE,1,1,c,*37
$GPRMC,151036,A,5136.3029,N,00147.6243,W,13.5,85.0,270207,3.3,W,A*19
$GPRMB,A,,,,,,,,,,,,A,A*0B
$GPGGA,151036,5136.3029,N,00147.6243,W,1,09,1.3,138.9,M,49.1,M,,*5C
$GPGSA,A,3,01,04,11,,13,17,20,23,25,31,,,2.3,1.3,1.9*3E
$GPGSV,3,1,12,01,35,051,45,04,23,299,37,11,39,139,44,12,04,348,00*70
$GPGSV,3,2,12,13,18,195,38,17,47,265,00,20,79,064,48,23,47,176,48*7E
$GPGSV,3,3,12,25,21,108,41,31,20,063,43,37,00,000,37,43,00,000,00*77
$GPGLL,5136.3029,N,00147.6243,W,151036,A,A*5D
$GPBOD,,T,,M,,*47
$PGRME,4.6,M,7.4,M,8.7,M*20
$PGRMZ,456,f,3*1C
$PGRMM,WGS 84*06
$GPRTE,1,1,c,*37
$GPRMC,151038,A,5136.3059,N,00147.6153,W,11.1,56.0,270207,3.3,W,A*1A
$GPRMB,A,,,,,,,,,,,,A,A*0B
$GPGGA,151038,5136.3059,N,00147.6153,W,1,09,1.3,139.1,M,49.1,M,,*5E
$GPGSA,A,3,01,04,11,,13,17,20,23,25,31,,,2.4,1.3,2.0*33
$GPGSV,3,1,12,01,35,051,44,04,23,299,38,11,39,139,46,12,04,348,36*79
$GPGSV,3,2,12,13,18,195,37,17,47,265,43,20,79,064,48,23,47,176,47*79
$GPGSV,3,3,12,25,21,108,44,31,20,063,43,37,00,000,36,43,00,000,00*73
$GPGLL,5136.3059,N,00147.6153,W,151038,A,A*56
$GPBOD,,T,,M,,*47
$PGRME,4.6,M,7.4,M,8.7,M*20
$PGRMZ,456,f,3*1C
$PGRMM,WGS 84*06
$GPRTE,1,1,c,*37
$GPRMC,151040,A,5136.3089,N,00147.6087,W,8.3,58.6,270207,3.3,W,A*22
$GPRMB,A,,,,,,,,,,,,A,A*0B
$GPGGA,151040,5136.3089,N,00147.6087,W,1,09,1.1,139.5,M,49.1,M,,*52
$GPGSA,A,3,01,04,11,,13,17,20,23,25,31,,,2.2,1.1,1.9*3D
$GPGSV,3,1,12,01,35,051,43,04,23,299,38,11,39,139,46,12,04,348,35*7D
$GPGSV,3,2,12,13,18,195,39,17,47,265,43,20,79,064,47,23,47,176,46*79
$GPGSV,3,3,12,25,21,108,45,31,20,063,41,37,00,000,35,43,00,000,00*73
$GPGLL,5136.3089,N,00147.6087,W,151040,A,A*5C
$GPBOD,,T,,M,,*47
$PGRME,4.6,M,7.4,M,8.7,M*20
$PGRMZ,458,f,3*12
$PGRMM,WGS 84*06
$GPRTE,1,1,c,*37
$GPRMC,151042,A,5136.3079,N,00147.6039,W,5.2,127.7,270207,3.3,W,A*1E
$GPRMB,A,,,,,,,,,,,,A,A*0B
$GPGGA,151042,5136.3079,N,00147.6039,W,1,09,1.3,139.7,M,49.1,M,,*5A
$GPGSA,A,3,01,04,11,,13,17,20,23,25,31,,,2.5,1.3,2.1*33
$GPGSV,3,1,12,01,35,051,45,04,23,299,38,11,39,139,46,12,04,348,00*7D
$GPGSV,3,2,12,13,18,195,37,17,47,265,43,20,79,064,48,23,47,176,47*79
$GPGSV,3,3,12,25,21,108,44,31,20,063,42,37,00,000,43,43,00,000,00*70
$GPGLL,5136.3079,N,00147.6039,W,151042,A,A*54
$GPBOD,,T,,M,,*47
$PGRME,4.7,M,7.5,M,8.8,M*2F
$PGRMZ,458,f,3*12
$PGRMM,WGS 84*06
$GPRTE,1,1,c,*37
$GPRMC,151044,A,5136.3054,N,00147.6031,W,4.6,178.5,270207,3.3,W,A*12
$GPRMB,A,,,,,,,,,,,,A,A*0B
$GPGGA,151044,5136.3054,N,00147.6031,W,1,09,1.7,139.1,M,49.1,M,,*59
$GPGSA,A,3,01,04,11,,13,17,20,23,25,31,,,3.0,1.7,1.9*38
$GPGSV,3,1,12,01,35,051,00,04,23,299,00,11,39,139,46,12,04,348,00*77
$GPGSV,3,2,12,13,18,195,41,17,47,265,43,20,79,064,47,23,47,176,46*76
$GPGSV,3,3,12,25,21,108,44,31,20,063,40,37,00,000,41,43,00,000,00*70
$GPGLL,5136.3054,N,00147.6031,W,151044,A,A*55
$GPBOD,,T,,M,,*47
$PGRME,5.2,M,7.8,M,9.4,M*2B
$PGRMZ,456,f,3*1C
$PGRMM,WGS 84*06
$GPRTE,1,1,c,*37
$GPRMC,151046,A,5136.3038,N,00147.6031,W,1.9,176.5,270207,3.3,W,A*1E
$GPRMB,A,,,,,,,,,,,,A,A*0B
$GPGGA,151046,5136.3038,N,00147.6031,W,1,09,1.8,139.0,M,49.1,M,,*5F
$GPGSA,A,3,01,04,11,,13,17,20,23,25,31,,,3.2,1.8,2.1*3E
$GPGSV,3,1,12,01,35,051,44,04,23,299,40,11,39,139,47,12,04,348,00*72
$GPGSV,3,2,12,13,18,195,40,17,47,265,45,20,79,064,46,23,47,176,44*72
$GPGSV,3,3,12,25,21,108,44,31,20,063,39,37,00,000,41,43,00,000,00*7E
$GPGLL,5136.3038,N,00147.6031,W,151046,A,A*5D
$GPBOD,,T,,M,,*47
$PGRME,5.2,M,8.0,M,9.6,M*2E
$PGRMZ,456,f,3*1C
$PGRMM,WGS 84*06
$GPRTE,1,1,c,*37
$GPRMC,151048,A,5136.3035,N,00147.6031,W,0.0,176.8,270207,3.3,W,A*18
$GPRMB,A,,,,,,,,,,,,A,A*0B
$GPGGA,151048,5136.3035,N,00147.6031,W,1,09,1.4,139.3,M,49.1,M,,*53
$GPGSA,A,3,01,04,11,,13,17,20,23,25,31,,,2.4,1.4,2.0*34
$GPGSV,3,1,12,01,35,051,43,04,23,299,39,11,39,139,47,12,04,348,00*7B
$GPGSV,3,2,12,13,18,195,40,17,47,265,46,20,79,064,46,23,47,176,42*77
$GPGSV,3,3,12,25,21,108,44,31,20,063,38,37,00,000,41,43,00,000,00*7F
$GPGLL,5136.3035,N,00147.6031,W,151048,A,A*5E
$GPBOD,,T,,M,,*47
$PGRME,4.6,M,7.4,M,8.7,M*20
$PGRMZ,457,f,3*1D
$PGRMM,WGS 84*06
$GPRTE,1,1,c,*37
$GPRMC,151050,A,5136.3033,N,00147.6032,W,0.0,176.8,270207,3.3,W,A*14
$GPRMB,A,,,,,,,,,,,,A,A*0B
$GPGGA,151050,5136.3033,N,00147.6032,W,1,09,1.4,139.7,M,49.1,M,,*5B
$GPGSA,A,3,01,04,11,,13,17,20,23,25,31,,,2.5,1.4,2.0*35
$GPGSV,3,1,12,01,35,051,43,04,23,299,39,11,39,139,47,12,04,348,32*7A
$GPGSV,3,2,12,13,18,195,40,17,47,265,46,20,79,064,45,23,47,176,41*77
$GPGSV,3,3,12,25,21,108,44,31,20,063,38,37,00,000,41,43,00,000,00*7F
$GPGLL,5136.3033,N,00147.6032,W,151050,A,A*52
$GPBOD,,T,,M,,*47
$PGRME,4.6,M,7.4,M,8.7,M*20
$PGRMZ,458,f,3*12
$PGRMM,WGS 84*06
$GPRTE,1,1,c,*37
$GPRMC,151052,A,5136.3033,N,00147.6032,W,0.0,176.8,270207,3.3,W,A*16
$GPRMB,A,,,,,,,,,,,,A,A*0B
$GPGGA,151052,5136.3033,N,00147.6032,W,1,09,1.5,139.9,M,49.1,M,,*56
$GPGSA,A,3,01,04,11,,13,17,20,23,25,31,,,2.6,1.5,2.1*36
$GPGSV,3,1,12,01,35,051,43,04,23,299,40,11,39,139,47,12,04,348,32*74
$GPGSV,3,2,12,13,18,195,40,17,47,265,46,20,79,064,45,23,47,176,40*76
$GPGSV,3,3,12,25,21,108,44,31,20,063,38,37,00,000,40,43,00,000,00*7E
$GPGLL,5136.3033,N,00147.6032,W,151052,A,A*50
$GPBOD,,T,,M,,*47
$PGRME,4.6,M,7.4,M,8.7,M*20
$PGRMZ,459,f,3*13
$PGRMM,WGS 84*06
$GPRTE,1,1,c,*37
$GPRMC,151054,A,5136.3032,N,00147.6033,W,0.0,176.8,270207,3.3,W,A*10
$GPRMB,A,,,,,,,,,,,,A,A*0B
$GPGGA,151054,5136.3032,N,00147.6033,W,1,09,1.1,140.2,M,49.1,M,,*51
$GPGSA,A,3,01,04,11,,13,17,20,23,25,31,,,2.1,1.1,1.8*3F
$GPGSV,3,1,12,01,35,051,43,04,23,299,40,11,39,139,47,12,04,348,33*75
$GPGSV,3,2,12,13,18,195,39,17,47,265,46,20,79,064,45,23,47,176,39*76
$GPGSV,3,3,12,25,21,108,44,31,20,063,38,37,00,000,40,43,00,000,00*7E
$GPGLL,5136.3032,N,00147.6033,W,151054,A,A*56
$GPBOD,,T,,M,,*47
$PGRME,4.6,M,7.4,M,8.7,M*20
$PGRMZ,460,f,3*19
$PGRMM,WGS 84*06
$GPRTE,1,1,c,*37
$GPRMC,151056,A,5136.3031,N,00147.6033,W,0.0,176.8,270207,3.3,W,A*11
$GPRMB,A,,,,,,,,,,,,A,A*0B
$GPGGA,151056,5136.3031,N,00147.6033,W,1,09,1.1,140.5,M,49.1,M,,*57
$GPGSA,A,3,01,04,11,,13,17,20,23,25,31,,,2.1,1.1,1.8*3F
$GPGSV,3,1,12,01,35,051,43,04,23,299,39,11,39,139,47,12,04,348,32*7A
$GPGSV,3,2,12,13,18,195,39,17,47,265,46,20,79,064,45,23,47,176,39*76
$GPGSV,3,3,12,25,21,108,44,31,20,063,38,37,00,000,40,43,00,000,00*7E
$GPGLL,5136.3031,N,00147.6033,W,151056,A,A*57
$GPBOD,,T,,M,,*47
$PGRME,4.6,M,7.4,M,8.7,M*20
$PGRMZ,461,f,3*18
$PGRMM,WGS 84*06
$GPRTE,1,1,c,*37
$GPRMC,151058,A,5136.3028,N,00147.6034,W,0.0,176.8,270207,3.3,W,A*10
$GPRMB,A,,,,,,,,,,,,A,A*0B
$GPGGA,151058,5136.3028,N,00147.6034,W,1,09,1.1,141.0,M,49.1,M,,*52
$GPGSA,A,3,01,04,11,,13,17,20,23,25,31,,,2.1,1.1,1.8*3F
$GPGSV,3,1,12,01,35,051,43,04,23,299,39,11,39,139,47,12,04,348,32*7A
$GPGSV,3,2,12,13,18,195,40,17,47,265,46,20,79,064,45,23,47,176,38*79
$GPGSV,3,3,12,25,21,108,44,31,20,063,38,37,00,000,40,43,00,000,00*7E
$GPGLL,5136.3028,N,00147.6034,W,151058,A,A*56
$GPBOD,,T,,M,,*47
$PGRME,4.6,M,7.4,M,8.7,M*20
$PGRMZ,463,f,3*1A
$PGRMM,WGS 84*06
$GPRTE,1,1,c,*37
$GPRMC,151100,A,5136.3027,N,00147.6034,W,0.0,176.8,270207,3.3,W,A*13
$GPRMB,A,,,,,,,,,,,,A,A*0B
$GPGGA,151100,5136.3027,N,00147.6034,W,1,09,1.1,141.2,M,49.1,M,,*53
$GPGSA,A,3,01,04,11,,13,17,20,23,25,31,,,2.1,1.1,1.8*3F
$GPGSV,3,1,12,01,35,051,42,04,23,299,39,11,38,139,47,12,04,348,31*79
$GPGSV,3,2,12,13,18,195,39,17,47,265,47,20,79,064,45,23,47,176,38*76
$GPGSV,3,3,12,25,21,108,43,31,20,063,37,37,00,000,40,43,00,000,00*76
$GPGLL,5136.3027,N,00147.6034,W,151100,A,A*55
$GPBOD,,T,,M,,*47
$PGRME,4.6,M,7.4,M,8.7,M*20
$PGRMZ,463,f,3*1A
$PGRMM,WGS 84*06
$GPRTE,1,1,c,*37
$GPRMC,151102,A,5136.3026,N,00147.6034,W,0.0,176.8,270207,3.3,W,A*10
$GPRMB,A,,,,,,,,,,,,A,A*0B
$GPGGA,151102,5136.3026,N,00147.6034,W,1,09,1.2,141.3,M,49.1,M,,*52
$GPGSA,A,3,01,04,11,,13,17,20,23,25,31,,,2.2,1.2,1.9*3E
$GPGSV,3,1,12,01,35,051,42,04,23,299,39,11,38,139,47,12,04,348,33*7B
$GPGSV,3,2,12,13,18,195,39,17,47,265,47,20,79,064,45,23,47,176,37*79
$GPGSV,3,3,12,25,21,108,43,31,20,063,37,37,00,000,40,43,00,000,00*76
$GPGLL,5136.3026,N,00147.6034,W,151102,A,A*56
$GPBOD,,T,,M,,*47
$PGRME,4.6,M,7.4,M,8.7,M*20
$PGRMZ,464,f,3*1D
$PGRMM,WGS 84*06
$GPRTE,1,1,c,*37
$GPRMC,151104,A,5136.3026,N,00147.6033,W,0.0,176.8,270207,3.3,W,A*11
$GPRMB,A,,,,,,,,,,,,A,A*0B
$GPGGA,151104,5136.3026,N,00147.6033,W,1,09,0.9,141.4,M,49.1,M,,*5E
$GPGSA,A,3,01,04,11,,13,17,20,23,25,31,,,1.9,0.9,1.7*32
$GPGSV,3,1,12,01,35,051,42,04,23,299,39,11,38,139,47,12,05,347,32*74
$GPGSV,3,2,12,13,18,195,39,17,47,265,47,20,79,064,45,23,47,176,37*79
$GPGSV,3,3,12,25,21,108,44,31,20,063,37,37,00,000,41,43,00,000,00*70
$GPGLL,5136.3026,N,00147.6033,W,151104,A,A*57
$GPBOD,,T,,M,,*47
$PGRME,4.6,M,7.4,M,8.7,M*20
$PGRMZ,464,f,3*1D
$PGRMM,WGS 84*06
$GPRTE,1,1,c,*37
$GPRMC,151106,A,5136.3025,N,00147.6033,W,0.0,176.8,270207,3.3,W,A*10
$GPRMB,A,,,,,,,,,,,,A,A*0B
$GPGGA,151106,5136.3025,N,00147.6033,W,1,09,0.9,141.6,M,49.1,M,,*5D
$GPGSA,A,3,01,04,11,,13,17,20,23,25,31,,,1.9,0.9,1.7*32
$GPGSV,3,1,12,01,35,051,42,04,23,299,39,11,38,139,47,12,05,347,32*74
$GPGSV,3,2,12,13,18,195,40,17,47,265,47,20,79,064,45,23,47,176,37*77
$GPGSV,3,3,12,25,21,108,44,31,20,063,37,37,00,000,41,43,00,000,00*70
$GPGLL,5136.3025,N,00147.6033,W,151106,A,A*56
$GPBOD,,T,,M,,*47
$PGRME,4.6,M,7.4,M,8.7,M*20
$PGRMZ,465,f,3*1C
$PGRMM,WGS 84*06
$GPRTE,1,1,c,*37
$GPRMC,151108,A,5136.3024,N,00147.6033,W,0.0,176.8,270207,3.3,W,A*1F
$GPRMB,A,,,,,,,,,,,,A,A*0B
$GPGGA,151108,5136.3024,N,00147.6033,W,1,09,0.9,141.8,M,49.1,M,,*5C
$GPGSA,A,3,01,04,11,,13,17,20,23,25,31,,,1.9,0.9,1.7*32
$GPGSV,3,1,12,01,35,051,42,04,23,299,39,11,38,139,47,12,05,347,32*74
$GPGSV,3,2,12,13,19,195,40,17,47,265,47,20,79,064,45,23,47,176,37*76
$GPGSV,3,3,12,25,21,108,43,31,20,063,37,37,00,000,41,43,00,000,00*77
$GPGLL,5136.3024,N,00147.6033,W,151108,A,A*59
$GPBOD,,T,,M,,*47
$PGRME,4.6,M,7.4,M,8.7,M*20
$PGRMZ,465,f,3*1C
$PGRMM,WGS 84*06
$GPRTE,1,1,c,*37
$GPRMC,151110,A,5136.3023,N,00147.6032,W,0.0,176.8,270207,3.3,W,A*10
$GPRMB,A,,,,,,,,,,,,A,A*0B
$GPGGA,151110,5136.3023,N,00147.6032,W,1,09,1.0,141.9,M,49.1,M,,*5A
$GPGSA,A,3,01,04,11,,13,17,20,23,25,31,,,2.0,1.0,1.7*30
$GPGSV,3,1,12,01,35,051,42,04,23,299,39,11,38,139,47,12,05,347,32*74
$GPGSV,3,2,12,13,19,195,40,17,47,265,46,20,79,064,46,23,47,176,38*7B
$GPGSV,3,3,12,25,21,108,44,31,20,063,37,37,00,000,41,43,00,000,00*70
$GPGLL,5136.3023,N,00147.6032,W,151110,A,A*56
$GPBOD,,T,,M,,*47
$PGRME,4.6,M,7.4,M,8.7,M*20
$PGRMZ,466,f,3*1F
$PGRMM,WGS 84*06
$GPRTE,1,1,c,*37
$GPRMC,151112,A,5136.3023,N,00147.6033,W,0.0,176.8,270207,3.3,W,A*13
$GPRMB,A,,,,,,,,,,,,A,A*0B
$GPGGA,151112,5136.3023,N,00147.6033,W,1,09,1.0,142.0,M,49.1,M,,*53
$GPGSA,A,3,01,04,11,,13,17,20,23,25,31,,,2.0,1.0,1.7*30
$GPGSV,3,1,12,01,35,051,42,04,23,299,40,11,38,139,47,12,05,347,31*79
$GPGSV,3,2,12,13,19,195,40,17,47,265,46,20,79,064,46,23,47,176,38*7B
$GPGSV,3,3,12,25,21,108,44,31,20,063,37,37,00,000,42,43,00,000,00*73
$GPGLL,5136.3023,N,00147.6033,W,151112,A,A*55
$GPBOD,,T,,M,,*47
$PGRME,4.6,M,7.4,M,8.7,M*20
$PGRMZ,466,f,3*1F
$PGRMM,WGS 84*06
$GPRTE,1,1,c,*37
$GPRMC,151114,A,5136.3022,N,00147.6033,W,0.0,176.8,270207,3.3,W,A*14
$GPRMB,A,,,,,,,,,,,,A,A*0B
$GPGGA,151114,5136.3022,N,00147.6033,W,1,09,1.1,142.2,M,49.1,M,,*57
$GPGSA,A,3,01,04,11,,13,17,20,23,25,31,,,2.1,1.1,1.8*3F
$GPGSV,3,1,12,01,35,051,42,04,23,299,39,11,38,139,47,12,05,347,32*74
$GPGSV,3,2,12,13,19,195,40,17,47,265,46,20,79,064,45,23,47,176,37*77
$GPGSV,3,3,12,25,21,108,44,31,20,063,37,37,00,000,41,43,00,000,00*70
$GPGLL,5136.3022,N,00147.6033,W,151114,A,A*52
$GPBOD,,T,,M,,*47
$PGRME,4.6,M,7.4,M,8.7,M*20
$PGRMZ,466,f,3*1F
$PGRMM,WGS 84*06
$GPRTE,1,1,c,*37
$GPRMC,151116,A,5136.3022,N,00147.6032,W,0.0,176.8,270207,3.3,W,A*17
$GPRMB,A,,,,,,,,,,,,A,A*0B
$GPGGA,151116,5136.3022,N,00147.6032,W,1,09,1.1,142.2,M,49.1,M,,*54
$GPGSA,A,3,01,04,11,,13,17,20,23,25,31,,,2.1,1.1,1.8*3F
$GPGSV,3,1,12,01,35,051,42,04,23,299,39,11,38,139,47,12,05,347,32*74
$GPGSV,3,2,12,13,19,195,41,17,47,265,47,20,79,064,45,23,47,176,39*79
$GPGSV,3,3,12,25,21,108,44,31,20,063,37,37,00,000,41,44,00,000,00*77
$GPGLL,5136.3022,N,00147.6032,W,151116,A,A*51
$GPBOD,,T,,M,,*47
$PGRME,4.6,M,7.4,M,8.7,M*20
$PGRMZ,467,f,3*1E
$PGRMM,WGS 84*06
$GPRTE,1,1,c,*37
$GPRMC,151118,A,5136.3020,N,00147.6032,W,0.6,177.0,270207,3.3,W,A*14
$GPRMB,A,,,,,,,,,,,,A,A*0B
$GPGGA,151118,5136.3020,N,00147.6032,W,1,09,1.1,142.2,M,49.1,M,,*58
$GPGSA,A,3,01,04,11,,13,17,20,23,25,31,,,2.2,1.1,1.9*3D
$GPGSV,3,1,12,01,35,051,43,04,23,299,39,11,38,139,48,12,05,347,00*7B
$GPGSV,3,2,12,13,19,195,41,17,47,265,47,20,79,064,45,23,47,176,38*78
$GPGSV,3,3,12,25,21,108,44,31,20,063,36,37,00,000,41,44,00,000,00*76
$GPGLL,5136.3020,N,00147.6032,W,151118,A,A*5D
$GPBOD,,T,,M,,*47
$PGRME,4.6,M,7.5,M,8.8,M*2E
$PGRMZ,466,f,3*1F
$PGRMM,WGS 84*06
$GPRTE,1,1,c,*37
$GPRMC,151120,A,5136.2993,N,00147.6026,W,6.6,172.6,270207,3.3,W,A*1F
$GPRMB,A,,,,,,,,,,,,A,A*0B
$GPGGA,151120,5136.2993,N,00147.6026,W,1,09,1.2,142.2,M,49.1,M,,*55
$GPGSA,A,3,01,04,11,,13,17,20,23,25,31,,,2.3,1.2,2.0*35
$GPGSV,3,1,12,01,35,051,44,04,23,299,39,11,38,139,48,12,05,347,00*7C
$GPGSV,3,2,12,13,19,195,39,17,47,265,46,20,79,064,45,23,47,176,38*76
$GPGSV,3,3,12,25,21,108,43,31,20,063,35,37,00,000,41,44,00,000,00*72
$GPGLL,5136.2993,N,00147.6026,W,151120,A,A*53
$GPBOD,,T,,M,,*47
$PGRME,4.6,M,7.5,M,8.8,M*2E
$PGRMZ,467,f,3*1E
$PGRMM,WGS 84*06
$GPRTE,1,1,c,*37
$GPRMC,151122,A,5136.2941,N,00147.6007,W,11.0,164.9,270207,3.3,W,A*29
$GPRMB,A,,,,,,,,,,,,A,A*0B
$GPGGA,151122,5136.2941,N,00147.6007,W,1,09,1.3,141.7,M,49.1,M,,*5C
$GPGSA,A,3,01,04,11,,13,17,20,23,25,31,,,2.4,1.3,2.1*32
$GPGSV,3,1,12,01,35,051,42,04,23,299,38,11,38,139,49,12,05,347,00*7A
$GPGSV,3,2,12,13,19,195,40,17,47,265,47,20,79,064,45,23,47,176,41*77
$GPGSV,3,3,12,25,21,108,43,31,20,063,00,37,00,000,41,44,00,000,00*74
$GPGLL,5136.2941,N,00147.6007,W,151122,A,A*5D
$GPBOD,,T,,M,,*47
$PGRME,4.6,M,7.5,M,8.8,M*2E
$PGRMZ,465,f,3*1C
$PGRMM,WGS 84*06
$GPRTE,1,1,c,*37
$GPRMC,151124,A,5136.2872,N,00147.5954,W,14.2,150.1,270207,3.3,W,A*2A
$GPRMB,A,,,,,,,,,,,,A,A*0B
$GPGGA,151124,5136.2872,N,00147.5954,W,1,09,1.3,141.1,M,49.1,M,,*51
$GPGSA,A,3,01,04,11,,13,17,20,23,25,31,,,2.3,1.3,1.9*3E
$GPGSV,3,1,12,01,35,051,41,04,23,299,38,11,38,139,47,12,05,347,00*77
$GPGSV,3,2,12,13,19,195,42,17,47,264,46,20,79,064,46,23,47,176,43*74
$GPGSV,3,3,12,25,21,108,42,31,20,063,42,37,00,000,41,44,00,000,00*73
$GPGLL,5136.2872,N,00147.5954,W,151124,A,A*56
$GPBOD,,T,,M,,*47
$PGRME,4.8,M,7.6,M,9.0,M*2A
$PGRMZ,463,f,3*1A
$PGRMM,WGS 84*06
$GPRTE,1,1,c,*37
$GPRMC,151126,A,5136.2808,N,00147.5857,W,16.7,132.8,270207,3.3,W,A*2D
$GPRMB,A,,,,,,,,,,,,A,A*0B
$GPGGA,151126,5136.2808,N,00147.5857,W,1,09,1.4,140.7,M,49.1,M,,*5C
$GPGSA,A,3,01,04,11,,13,17,20,23,25,31,,,2.4,1.4,1.9*3E
$GPGSV,3,1,12,01,35,051,40,04,23,299,00,11,38,139,45,12,05,347,39*75
$GPGSV,3,2,12,13,19,195,43,17,47,264,43,20,79,064,48,23,47,176,44*79
$GPGSV,3,3,12,25,21,108,43,31,20,063,42,37,00,000,40,44,00,000,00*73
$GPGLL,5136.2808,N,00147.5857,W,151126,A,A*5B
$GPBOD,,T,,M,,*47
$PGRME,4.9,M,7.6,M,9.1,M*2A
$PGRMZ,461,f,3*18
$PGRMM,WGS 84*06
$GPRTE,1,1,c,*37
$GPRMC,151128,A,5136.2759,N,00147.5715,W,18.8,117.0,270207,3.3,W,A*2F
$GPRMB,A,,,,,,,,,,,,A,A*0B
$GPGGA,151128,5136.2759,N,00147.5715,W,1,09,1.4,140.2,M,49.1,M,,*55
$GPGSA,A,3,01,04,11,,13,17,20,23,25,31,,,2.8,1.4,2.3*3B
$GPGSV,3,1,12,01,35,051,44,04,23,299,39,11,38,139,45,12,05,347,00*71
$GPGSV,3,2,12,13,19,195,42,17,47,264,43,20,79,064,48,23,47,176,47*7B
$GPGSV,3,3,12,25,21,108,43,31,20,063,43,37,00,000,40,44,00,000,00*72
$GPGLL,5136.2759,N,00147.5715,W,151128,A,A*57
$GPBOD,,T,,M,,*47
$PGRME,4.6,M,7.4,M,8.7,M*20
$PGRMZ,460,f,3*19
$PGRMM,WGS 84*06
$GPRTE,1,1,c,*37
$GPRMC,151130,A,5136.2709,N,00147.5556,W,20.3,117.5,270207,3.3,W,A*23
$GPRMB,A,,,,,,,,,,,,A,A*0B
$GPGGA,151130,5136.2709,N,00147.5556,W,1,09,1.0,139.7,M,49.1,M,,*53
$GPGSA,A,3,01,04,11,,13,17,20,23,25,31,,,2.0,1.0,1.7*30
$GPGSV,3,1,12,01,35,051,45,04,23,299,38,11,38,139,43,12,05,347,00*77
$GPGSV,3,2,12,13,19,195,00,17,47,264,42,20,79,064,49,23,47,176,48*72
$GPGSV,3,3,12,25,21,108,44,31,20,063,41,37,00,000,41,44,00,000,00*76
$GPGLL,5136.2709,N,00147.5556,W,151130,A,A*5E
$GPBOD,,T,,M,,*47
$PGRME,4.6,M,7.5,M,8.8,M*2E
$PGRMZ,458,f,3*12
$PGRMM,WGS 84*06
$GPRTE,1,1,c,*37
$GPRMC,151132,A,5136.2652,N,00147.5387,W,22.1,119.5,270207,3.3,W,A*2A
$GPRMB,A,,,,,,,,,,,,A,A*0B
$GPGGA,151132,5136.2652,N,00147.5387,W,1,09,1.4,139.2,M,49.1,M,,*55
$GPGSA,A,3,01,04,11,,13,17,20,23,25,31,,,2.5,1.4,2.0*35
$GPGSV,3,1,12,01,35,051,45,04,23,299,36,11,38,139,43,12,05,347,00*79
$GPGSV,3,2,12,13,19,195,39,17,47,264,40,20,79,064,49,23,47,176,49*7B
$GPGSV,3,3,12,25,21,108,44,31,20,063,42,37,00,000,41,44,00,000,00*75
$GPGLL,5136.2652,N,00147.5387,W,151132,A,A*59
$GPBOD,,T,,M,,*47
$PGRME,4.6,M,7.5,M,8.8,M*2E
$PGRMZ,457,f,3*1D
$PGRMM,WGS 84*06
$GPRTE,1,1,c,*37
$GPRMC,151134,A,5136.2588,N,00147.5209,W,23.5,120.7,270207,3.3,W,A*22
$GPRMB,A,,,,,,,,,,,,A,A*0B
$GPGGA,151134,5136.2588,N,00147.5209,W,1,09,1.9,138.8,M,49.1,M,,*56
$GPGSA,A,3,01,04,11,,13,17,20,23,25,31,,,3.2,1.9,2.6*38
$GPGSV,3,1,12,01,35,051,45,04,23,299,36,11,38,139,44,12,05,347,00*7E
$GPGSV,3,2,12,13,19,195,39,17,47,264,38,20,78,065,49,23,47,176,49*74
$GPGSV,3,3,12,25,21,108,44,31,20,063,41,37,00,000,40,44,00,000,00*77
$GPGLL,5136.2588,N,00147.5209,W,151134,A,A*5C
$GPBOD,,T,,M,,*47
$PGRME,4.6,M,7.4,M,8.7,M*20
$PGRMZ,455,f,3*1F
$PGRMM,WGS 84*06
$GPRTE,1,1,c,*37
$GPRMC,151136,A,5136.2517,N,00147.5027,W,24.5,123.0,270207,3.3,W,A*2B
$GPRMB,A,,,,,,,,,,,,A,A*0B
$GPGGA,151136,5136.2517,N,00147.5027,W,1,09,2.1,138.4,M,49.1,M,,*5B
$GPGSA,A,3,01,04,11,,13,17,20,23,25,31,,,3.6,2.1,2.9*38
$GPGSV,3,1,12,01,35,051,46,04,23,299,35,11,38,139,45,12,05,347,00*7F
$GPGSV,3,2,12,13,19,195,38,17,47,264,37,20,78,065,49,23,47,176,49*7A
$GPGSV,3,3,12,25,21,108,45,31,20,063,41,37,00,000,39,44,00,000,00*78
$GPGLL,5136.2517,N,00147.5027,W,151136,A,A*56
$GPBOD,,T,,M,,*47
$PGRME,4.7,M,7.5,M,8.9,M*2E
$PGRMZ,454,f,3*1E
$PGRMM,WGS 84*06
$GPRTE,1,1,c,*37
$GPRMC,151138,A,5136.2444,N,00147.4848,W,23.9,123.7,270207,3.3,W,A*2E
$GPRMB,A,,,,,,,,,,,,A,A*0B
$GPGGA,151138,5136.2444,N,00147.4848,W,1,09,2.0,137.9,M,49.1,M,,*51
$GPGSA,A,3,01,04,11,,13,17,20,23,25,31,,,3.1,2.0,2.3*34
$GPGSV,3,1,12,01,35,051,46,04,23,299,00,11,38,139,45,12,05,347,00*79
$GPGSV,3,2,12,13,19,195,38,17,47,264,36,20,78,065,49,23,47,176,50*73
$GPGSV,3,3,12,25,21,108,45,31,20,063,40,37,00,000,38,44,00,000,00*78
$GPGLL,5136.2444,N,00147.4848,W,151138,A,A*5F
$GPBOD,,T,,M,,*47
$PGRME,5.1,M,7.7,M,9.3,M*20
$PGRMZ,452,f,3*18
$PGRMM,WGS 84*06
$GPRTE,1,1,c,*37
$GPRMC,151140,A,5136.2378,N,00147.4682,W,21.6,122.3,270207,3.3,W,A*29
$GPRMB,A,,,,,,,,,,,,A,A*0B
$GPGGA,151140,5136.2378,N,00147.4682,W,1,09,2.2,137.5,M,49.1,M,,*50
$GPGSA,A,3,01,04,11,,13,17,20,23,25,31,,,3.3,2.2,2.5*32
$GPGSV,3,1,12,01,35,051,47,04,23,299,37,11,38,139,45,12,05,347,36*79
$GPGSV,3,2,12,13,19,195,39,17,47,264,35,20,78,065,49,23,47,176,50*71
$GPGSV,3,3,12,25,21,108,45,31,20,062,40,37,00,000,37,44,00,000,00*76
$GPGLL,5136.2378,N,00147.4682,W,151140,A,A*50
$GPBOD,,T,,M,,*47
$PGRME,5.5,M,7.6,M,9.5,M*23
$PGRMZ,451,f,3*1B
$PGRMM,WGS 84*06
$GPRTE,1,1,c,*37
$GPRMC,151142,A,5136.2339,N,00147.4547,W,14.9,112.9,270207,3.3,W,A*24
$GPRMB,A,,,,,,,,,,,,A,A*0B
$GPGGA,151142,5136.2339,N,00147.4547,W,1,09,2.6,137.1,M,49.1,M,,*5D
$GPGSA,A,3,01,04,11,,13,17,20,23,25,31,,,4.0,2.6,3.1*37
$GPGSV,3,1,12,01,35,051,46,04,23,299,36,11,38,139,44,12,05,347,00*7D
$GPGSV,3,2,12,13,19,195,38,17,47,264,39,20,78,065,48,23,47,176,49*75
$GPGSV,3,3,12,25,21,108,46,31,20,062,42,37,00,000,40,44,00,000,00*77
$GPGLL,5136.2339,N,00147.4547,W,151142,A,A*5D
$GPBOD,,T,,M,,*47
$PGRME,4.6,M,7.4,M,8.7,M*20
$PGRMZ,450,f,3*1A
$PGRMM,WGS 84*06
$GPRTE,1,1,c,*37
$GPRMC,151144,A,5136.2316,N,00147.4442,W,12.6,108.9,270207,3.3,W,A*29
$GPRMB,A,,,,,,,,,,,,A,A*0B
$GPGGA,151144,5136.2316,N,00147.4442,W,1,09,1.4,136.9,M,49.1,M,,*5A
$GPGSA,A,3,01,04,11,,13,17,20,23,25,31,,,3.1,1.4,2.8*38
$GPGSV,3,1,12,01,35,051,46,04,23,299,00,11,38,139,44,12,05,347,00*78
$GPGSV,3,2,12,13,19,195,37,17,47,264,42,20,78,065,49,23,47,176,48*76
$GPGSV,3,3,12,25,21,108,45,31,20,062,40,37,00,000,40,44,00,000,00*76
$GPGLL,5136.2316,N,00147.4442,W,151144,A,A*52
$GPBOD,,T,,M,,*47
$PGRME,4.8,M,7.8,M,9.2,M*26
$PGRMZ,449,f,3*12
$PGRMM,WGS 84*06
$GPRTE,1,1,c,*37
$GPRMC,151146,A,5136.2280,N,00147.4339,W,13.7,128.2,270207,3.3,W,A*27
$GPRMB,A,,,,,,,,,,,,A,A*0B
$GPGGA,151146,5136.2280,N,00147.4339,W,1,09,1.5,136.4,M,49.1,M,,*51
$GPGSA,A,3,01,04,11,,13,17,20,23,25,31,,,2.5,1.5,1.0*37
$GPGSV,3,1,12,01,35,051,45,04,23,299,00,11,38,139,43,12,05,347,00*7C
$GPGSV,3,2,12,13,19,195,37,17,47,264,41,20,78,065,48,23,48,175,48*78
$GPGSV,3,3,12,25,21,108,45,31,20,062,41,37,00,000,40,44,00,000,00*77
$GPGLL,5136.2280,N,00147.4339,W,151146,A,A*55
$GPBOD,,T,,M,,*47
$PGRME,5.3,M,8.2,M,9.8,M*23
$PGRMZ,448,f,3*13
$PGRMM,WGS 84*06
$GPRTE,1,1,c,*37
$GPRMC,151148,A,5136.2209,N,00147.4271,W,15.2,152.5,270207,3.3,W,A*2C
$GPRMB,A,,,,,,,,,,,,A,A*0B
$GPGGA,151148,5136.2209,N,00147.4271,W,1,09,1.4,136.5,M,49.1,M,,*53
$GPGSA,A,3,01,04,11,,13,17,20,23,25,31,,,2.3,1.4,1.2*32
$GPGSV,3,1,12,01,35,051,43,04,23,299,34,11,38,139,43,12,05,347,00*7D
$GPGSV,3,2,12,13,19,195,42,17,47,264,43,20,78,065,48,23,48,175,46*76
$GPGSV,3,3,12,25,21,108,43,31,20,062,42,37,00,000,41,44,00,000,00*73
$GPGLL,5136.2209,N,00147.4271,W,151148,A,A*57
$GPBOD,,T,,M,,*47
$PGRME,5.1,M,7.6,M,9.1,M*23
$PGRMZ,448,f,3*13
$PGRMM,WGS 84*06
$GPRTE,1,1,c,*37
$GPRMC,151150,A,5136.2131,N,00147.4195,W,17.0,145.9,270207,3.3,W,A*2E
$GPRMB,A,,,,,,,,,,,,A,A*0B
$GPGGA,151150,5136.2131,N,00147.4195,W,1,09,1.5,135.6,M,49.1,M,,*5A
$GPGSA,A,3,01,04,11,,13,17,20,23,25,31,,,2.4,1.5,1.3*35
$GPGSV,3,1,12,01,35,051,41,04,23,299,32,11,38,139,42,12,05,347,34*7F
$GPGSV,3,2,12,13,19,195,44,17,47,264,43,20,78,065,48,23,48,175,45*73
$GPGSV,3,3,12,25,21,108,41,31,20,062,43,37,00,000,41,44,00,000,00*70
$GPGLL,5136.2131,N,00147.4195,W,151150,A,A*5F
$GPBOD,,T,,M,,*47
$PGRME,4.6,M,7.4,M,8.7,M*20
$PGRMZ,445,f,3*1E
$PGRMM,WGS 84*06
$GPRTE,1,1,c,*37
$GPRMC,151152,A,5136.2058,N,00147.4078,W,19.3,131.7,270207,3.3,W,A*20
$GPRMB,A,,,,,,,,,,,,A,A*0B
$GPGGA,151152,5136.2058,N,00147.4078,W,1,09,2.3,134.5,M,49.1,M,,*53
$GPGSA,A,3,01,04,11,,13,17,20,23,25,31,,,3.3,2.3,1.4*31
$GPGSV,3,1,12,01,35,051,40,04,23,299,00,11,38,139,43,12,05,347,00*79
$GPGSV,3,2,12,13,19,195,43,17,47,264,00,20,78,065,48,23,48,175,46*70
$GPGSV,3,3,12,25,21,108,42,31,20,062,43,37,00,000,38,44,00,000,00*7D
$GPGLL,5136.2058,N,00147.4078,W,151152,A,A*51
$GPBOD,,T,,M,,*47
$PGRME,5.1,M,7.6,M,9.2,M*20
$PGRMZ,441,f,3*1A
$PGRMM,WGS 84*06
$GPRTE,1,1,c,*37
$GPRMC,151154,A,5136.2000,N,00147.3929,W,19.7,118.7,270207,3.3,W,A*2E
$GPRMB,A,,,,,,,,,,,,A,A*0B
$GPGGA,151154,5136.2000,N,00147.3929,W,1,09,1.2,133.5,M,49.1,M,,*57
$GPGSA,A,3,01,04,11,,13,17,20,23,25,31,,,2.5,1.2,1.8*38
$GPGSV,3,1,12,01,35,051,42,04,23,299,40,11,38,139,43,12,05,347,00*7F
$GPGSV,3,2,12,13,19,195,41,17,47,264,00,20,78,065,49,23,48,175,48*7D
$GPGSV,3,3,12,25,21,107,43,31,20,062,43,37,00,000,38,44,00,000,00*73
$GPGLL,5136.2000,N,00147.3929,W,151154,A,A*50
$GPBOD,,T,,M,,*47
$PGRME,5.2,M,7.6,M,9.2,M*23
$PGRMZ,438,f,3*14
$PGRMM,WGS 84*06
$GPRTE,1,1,c,*37
$GPRMC,151156,A,5136.1980,N,00147.3776,W,16.9,94.5,270207,3.3,W,A*1C
$GPRMB,A,,,,,,,,,,,,A,A*0B
$GPGGA,151156,5136.1980,N,00147.3776,W,1,09,1.4,133.1,M,49.1,M,,*51
$GPGSA,A,3,01,04,11,,13,17,20,23,25,31,,,2.8,1.4,2.1*39
$GPGSV,3,1,12,01,35,051,44,04,23,299,39,11,38,139,44,12,05,347,00*70
$GPGSV,3,2,12,13,19,195,39,17,47,264,38,20,78,065,49,23,48,175,47*76
